{"type":"FeatureCollection","features":[{"type":"Feature","geometry":{"type":"Point","coordinates":[-73.9939,40.7673]},"properties":{"station_id":"  72","station_name":"W 52 St & 11 Ave","total_rides":"15130","median_trip_duration":"13","median_age":"38"}},{"type":"Feature","geometry":{"type":"Point","coordinates":[-74.0067,40.7191]},"properties":{"station_id":"  79","station_name":"Franklin St & W Broadway","total_rides":"15592","median_trip_duration":"12","median_age":"41"}},{"type":"Feature","geometry":{"type":"Point","coordinates":[-74.0002,40.7112]},"properties":{"station_id":"  82","station_name":"St James Pl & Pearl St","total_rides":" 6201","median_trip_duration":"10","median_age":"40"}},{"type":"Feature","geometry":{"type":"Point","coordinates":[-73.9763,40.6838]},"properties":{"station_id":"  83","station_name":"Atlantic Ave & Fort Greene Pl","total_rides":" 8272","median_trip_duration":"10","median_age":"38"}},{"type":"Feature","geometry":{"type":"Point","coordinates":[-74.0015,40.7418]},"properties":{"station_id":" 116","station_name":"W 17 St & 8 Ave","total_rides":"24248","median_trip_duration":" 9","median_age":"39"}},{"type":"Feature","geometry":{"type":"Point","coordinates":[-73.978,40.6961]},"properties":{"station_id":" 119","station_name":"Park Ave & St Edwards St","total_rides":" 1074","median_trip_duration":" 9","median_age":"39"}},{"type":"Feature","geometry":{"type":"Point","coordinates":[-73.9593,40.6868]},"properties":{"station_id":" 120","station_name":"Lexington Ave & Classon Ave","total_rides":" 2735","median_trip_duration":"10","median_age":"38"}},{"type":"Feature","geometry":{"type":"Point","coordinates":[-74.0067,40.7317]},"properties":{"station_id":" 127","station_name":"Barrow St & Hudson St","total_rides":"23873","median_trip_duration":"11","median_age":"40"}},{"type":"Feature","geometry":{"type":"Point","coordinates":[-74.003,40.7271]},"properties":{"station_id":" 128","station_name":"MacDougal St & Prince St","total_rides":"26070","median_trip_duration":"10","median_age":"38"}},{"type":"Feature","geometry":{"type":"Point","coordinates":[-73.9934,40.6924]},"properties":{"station_id":" 143","station_name":"Clinton St & Joralemon St","total_rides":" 4653","median_trip_duration":"11","median_age":"40"}},{"type":"Feature","geometry":{"type":"Point","coordinates":[-73.9807,40.6984]},"properties":{"station_id":" 144","station_name":"Nassau St & Navy St","total_rides":" 2244","median_trip_duration":"16","median_age":"37"}},{"type":"Feature","geometry":{"type":"Point","coordinates":[-74.0091,40.7163]},"properties":{"station_id":" 146","station_name":"Hudson St & Reade St","total_rides":"11767","median_trip_duration":"10","median_age":"42"}},{"type":"Feature","geometry":{"type":"Point","coordinates":[-73.9809,40.7209]},"properties":{"station_id":" 150","station_name":"E 2 St & Avenue C","total_rides":" 9188","median_trip_duration":"10","median_age":"35"}},{"type":"Feature","geometry":{"type":"Point","coordinates":[-73.9972,40.7218]},"properties":{"station_id":" 151","station_name":"Cleveland Pl & Spring St","total_rides":"33859","median_trip_duration":"10","median_age":"37"}},{"type":"Feature","geometry":{"type":"Point","coordinates":[-74.0091,40.7147]},"properties":{"station_id":" 152","station_name":"Warren St & Church St","total_rides":"13696","median_trip_duration":"10","median_age":"41"}},{"type":"Feature","geometry":{"type":"Point","coordinates":[-73.9816,40.7521]},"properties":{"station_id":" 153","station_name":"E 40 St & 5 Ave","total_rides":"18945","median_trip_duration":" 9","median_age":"42"}},{"type":"Feature","geometry":{"type":"Point","coordinates":[-73.9961,40.6909]},"properties":{"station_id":" 157","station_name":"Henry St & Atlantic Ave","total_rides":" 7991","median_trip_duration":"11","median_age":"39"}},{"type":"Feature","geometry":{"type":"Point","coordinates":[-73.9981,40.7292]},"properties":{"station_id":" 161","station_name":"LaGuardia Pl & W 3 St","total_rides":"20941","median_trip_duration":" 9","median_age":"36"}},{"type":"Feature","geometry":{"type":"Point","coordinates":[-73.9703,40.7532]},"properties":{"station_id":" 164","station_name":"E 47 St & 2 Ave","total_rides":"11999","median_trip_duration":"12","median_age":"40"}},{"type":"Feature","geometry":{"type":"Point","coordinates":[-73.9761,40.7489]},"properties":{"station_id":" 167","station_name":"E 39 St & 3 Ave","total_rides":"17329","median_trip_duration":"10","median_age":"40"}},{"type":"Feature","geometry":{"type":"Point","coordinates":[-73.9946,40.7397]},"properties":{"station_id":" 168","station_name":"W 18 St & 6 Ave","total_rides":"26088","median_trip_duration":" 9","median_age":"40"}},{"type":"Feature","geometry":{"type":"Point","coordinates":[-73.9844,40.7606]},"properties":{"station_id":" 173","station_name":"Broadway & W 49 St","total_rides":"19059","median_trip_duration":" 9","median_age":"39"}},{"type":"Feature","geometry":{"type":"Point","coordinates":[-73.9774,40.7382]},"properties":{"station_id":" 174","station_name":"E 25 St & 1 Ave","total_rides":"12465","median_trip_duration":"10","median_age":"36"}},{"type":"Feature","geometry":{"type":"Point","coordinates":[-74.0104,40.7091]},"properties":{"station_id":" 195","station_name":"Liberty St & Broadway","total_rides":"17156","median_trip_duration":"13","median_age":"41"}},{"type":"Feature","geometry":{"type":"Point","coordinates":[-74.0068,40.7433]},"properties":{"station_id":" 212","station_name":"W 16 St & The High Line","total_rides":"15877","median_trip_duration":"11","median_age":"40"}},{"type":"Feature","geometry":{"type":"Point","coordinates":[-73.9955,40.7004]},"properties":{"station_id":" 216","station_name":"Columbia Heights & Cranberry St","total_rides":" 3483","median_trip_duration":"14","median_age":"42"}},{"type":"Feature","geometry":{"type":"Point","coordinates":[-73.9938,40.7028]},"properties":{"station_id":" 217","station_name":"Old Fulton St","total_rides":" 7958","median_trip_duration":"20","median_age":"40"}},{"type":"Feature","geometry":{"type":"Point","coordinates":[-73.9999,40.7378]},"properties":{"station_id":" 223","station_name":"W 13 St & 7 Ave","total_rides":"16382","median_trip_duration":" 8","median_age":"40"}},{"type":"Feature","geometry":{"type":"Point","coordinates":[-74.0055,40.7115]},"properties":{"station_id":" 224","station_name":"Spruce St & Nassau St","total_rides":"11290","median_trip_duration":"12","median_age":"39"}},{"type":"Feature","geometry":{"type":"Point","coordinates":[-73.9719,40.7546]},"properties":{"station_id":" 228","station_name":"E 48 St & 3 Ave","total_rides":"10987","median_trip_duration":"12","median_age":"40"}},{"type":"Feature","geometry":{"type":"Point","coordinates":[-73.9938,40.7274]},"properties":{"station_id":" 229","station_name":"Great Jones St","total_rides":"21126","median_trip_duration":" 8","median_age":"38"}},{"type":"Feature","geometry":{"type":"Point","coordinates":[-73.9901,40.696]},"properties":{"station_id":" 232","station_name":"Cadman Plaza E & Tillary St","total_rides":" 5200","median_trip_duration":"16","median_age":"40"}},{"type":"Feature","geometry":{"type":"Point","coordinates":[-73.9871,40.7284]},"properties":{"station_id":" 236","station_name":"St Marks Pl & 2 Ave","total_rides":"19737","median_trip_duration":"10","median_age":"36"}},{"type":"Feature","geometry":{"type":"Point","coordinates":[-73.9867,40.7305]},"properties":{"station_id":" 237","station_name":"E 11 St & 2 Ave","total_rides":"22066","median_trip_duration":" 9","median_age":"36"}},{"type":"Feature","geometry":{"type":"Point","coordinates":[-74.0086,40.7362]},"properties":{"station_id":" 238","station_name":"Bank St & Washington St","total_rides":"13530","median_trip_duration":"12","median_age":"43"}},{"type":"Feature","geometry":{"type":"Point","coordinates":[-73.9813,40.692]},"properties":{"station_id":" 239","station_name":"Willoughby St & Fleet St","total_rides":" 4729","median_trip_duration":" 6","median_age":"39"}},{"type":"Feature","geometry":{"type":"Point","coordinates":[-73.9749,40.6898]},"properties":{"station_id":" 241","station_name":"DeKalb Ave & S Portland Ave","total_rides":" 3654","median_trip_duration":" 7","median_age":"38"}},{"type":"Feature","geometry":{"type":"Point","coordinates":[-73.9735,40.6979]},"properties":{"station_id":" 242","station_name":"Flushing Ave & Carlton Ave","total_rides":" 3597","median_trip_duration":"11","median_age":"37"}},{"type":"Feature","geometry":{"type":"Point","coordinates":[-73.9785,40.688]},"properties":{"station_id":" 243","station_name":"Fulton St & Rockwell Pl","total_rides":" 9787","median_trip_duration":" 9","median_age":"40"}},{"type":"Feature","geometry":{"type":"Point","coordinates":[-73.9654,40.692]},"properties":{"station_id":" 244","station_name":"Willoughby Ave & Hall St","total_rides":" 4355","median_trip_duration":" 8","median_age":"40"}},{"type":"Feature","geometry":{"type":"Point","coordinates":[-73.977,40.6933]},"properties":{"station_id":" 245","station_name":"Myrtle Ave & St Edwards St","total_rides":" 1917","median_trip_duration":" 7","median_age":"37"}},{"type":"Feature","geometry":{"type":"Point","coordinates":[-74.0048,40.7353]},"properties":{"station_id":" 247","station_name":"Perry St & Bleecker St","total_rides":"12504","median_trip_duration":"10","median_age":"39"}},{"type":"Feature","geometry":{"type":"Point","coordinates":[-74.0077,40.7219]},"properties":{"station_id":" 248","station_name":"Laight St & Hudson St","total_rides":" 4411","median_trip_duration":"12","median_age":"44"}},{"type":"Feature","geometry":{"type":"Point","coordinates":[-74.009,40.7187]},"properties":{"station_id":" 249","station_name":"Harrison St & Hudson St","total_rides":" 8305","median_trip_duration":"12","median_age":"42"}},{"type":"Feature","geometry":{"type":"Point","coordinates":[-73.9948,40.7232]},"properties":{"station_id":" 251","station_name":"Mott St & Prince St","total_rides":"21540","median_trip_duration":"10","median_age":"36"}},{"type":"Feature","geometry":{"type":"Point","coordinates":[-73.9985,40.7323]},"properties":{"station_id":" 252","station_name":"MacDougal St & Washington Sq","total_rides":"13613","median_trip_duration":" 9","median_age":"38"}},{"type":"Feature","geometry":{"type":"Point","coordinates":[-73.9945,40.7354]},"properties":{"station_id":" 253","station_name":"W 13 St & 5 Ave","total_rides":"16641","median_trip_duration":" 9","median_age":"39"}},{"type":"Feature","geometry":{"type":"Point","coordinates":[-73.998,40.7353]},"properties":{"station_id":" 254","station_name":"W 11 St & 6 Ave","total_rides":"15466","median_trip_duration":" 9","median_age":"41"}},{"type":"Feature","geometry":{"type":"Point","coordinates":[-74.0025,40.7194]},"properties":{"station_id":" 257","station_name":"Lispenard St & Broadway","total_rides":"12326","median_trip_duration":"10","median_age":"41"}},{"type":"Feature","geometry":{"type":"Point","coordinates":[-73.9689,40.6894]},"properties":{"station_id":" 258","station_name":"DeKalb Ave & Vanderbilt Ave","total_rides":" 4158","median_trip_duration":" 6","median_age":"39"}},{"type":"Feature","geometry":{"type":"Point","coordinates":[-74.0123,40.7012]},"properties":{"station_id":" 259","station_name":"South St & Whitehall St","total_rides":" 9619","median_trip_duration":"20","median_age":"42"}},{"type":"Feature","geometry":{"type":"Point","coordinates":[-74.0117,40.7037]},"properties":{"station_id":" 260","station_name":"Broad St & Bridge St","total_rides":" 6184","median_trip_duration":"15","median_age":"40"}},{"type":"Feature","geometry":{"type":"Point","coordinates":[-73.9836,40.6947]},"properties":{"station_id":" 261","station_name":"Johnson St & Gold St","total_rides":" 4555","median_trip_duration":"11","median_age":"36"}},{"type":"Feature","geometry":{"type":"Point","coordinates":[-73.9737,40.6918]},"properties":{"station_id":" 262","station_name":"Washington Park","total_rides":" 3661","median_trip_duration":" 6","median_age":"38"}},{"type":"Feature","geometry":{"type":"Point","coordinates":[-74.0073,40.7071]},"properties":{"station_id":" 264","station_name":"Maiden Ln & Pearl St","total_rides":"13762","median_trip_duration":"11","median_age":"39"}},{"type":"Feature","geometry":{"type":"Point","coordinates":[-73.9915,40.7223]},"properties":{"station_id":" 265","station_name":"Stanton St & Chrystie St","total_rides":"13563","median_trip_duration":"10","median_age":"38"}},{"type":"Feature","geometry":{"type":"Point","coordinates":[-73.9758,40.7237]},"properties":{"station_id":" 266","station_name":"Avenue D & E 8 St","total_rides":" 4459","median_trip_duration":"13","median_age":"38"}},{"type":"Feature","geometry":{"type":"Point","coordinates":[-73.9877,40.751]},"properties":{"station_id":" 267","station_name":"Broadway & W 36 St","total_rides":"10022","median_trip_duration":"10","median_age":"39"}},{"type":"Feature","geometry":{"type":"Point","coordinates":[-73.9997,40.7191]},"properties":{"station_id":" 268","station_name":"Howard St & Centre St","total_rides":"17129","median_trip_duration":"10","median_age":"39"}},{"type":"Feature","geometry":{"type":"Point","coordinates":[-73.9718,40.6931]},"properties":{"station_id":" 270","station_name":"Adelphi St & Myrtle Ave","total_rides":" 5549","median_trip_duration":" 6","median_age":"38"}},{"type":"Feature","geometry":{"type":"Point","coordinates":[-73.9767,40.6869]},"properties":{"station_id":" 274","station_name":"Lafayette Ave & Fort Greene Pl","total_rides":" 5081","median_trip_duration":"10","median_age":"39"}},{"type":"Feature","geometry":{"type":"Point","coordinates":[-73.9656,40.6865]},"properties":{"station_id":" 275","station_name":"Washington Ave & Greene Ave","total_rides":" 2403","median_trip_duration":" 7","median_age":"39"}},{"type":"Feature","geometry":{"type":"Point","coordinates":[-74.0105,40.7175]},"properties":{"station_id":" 276","station_name":"Duane St & Greenwich St","total_rides":"10060","median_trip_duration":"10","median_age":"42"}},{"type":"Feature","geometry":{"type":"Point","coordinates":[-73.9848,40.6977]},"properties":{"station_id":" 278","station_name":"Concord St & Bridge St","total_rides":" 2442","median_trip_duration":"12","median_age":"35"}},{"type":"Feature","geometry":{"type":"Point","coordinates":[-73.9827,40.6999]},"properties":{"station_id":" 279","station_name":"Sands St & Gold St","total_rides":" 2164","median_trip_duration":"15","median_age":"38"}},{"type":"Feature","geometry":{"type":"Point","coordinates":[-73.9951,40.7333]},"properties":{"station_id":" 280","station_name":"E 10 St & 5 Ave","total_rides":"14595","median_trip_duration":" 9","median_age":"40"}},{"type":"Feature","geometry":{"type":"Point","coordinates":[-73.9737,40.7644]},"properties":{"station_id":" 281","station_name":"Grand Army Plaza & Central Park S","total_rides":"24059","median_trip_duration":"17","median_age":"40"}},{"type":"Feature","geometry":{"type":"Point","coordinates":[-73.9683,40.7083]},"properties":{"station_id":" 282","station_name":"Kent Ave & S 11 St","total_rides":" 3223","median_trip_duration":"13","median_age":"40"}},{"type":"Feature","geometry":{"type":"Point","coordinates":[-74.0026,40.739]},"properties":{"station_id":" 284","station_name":"Greenwich Ave & 8 Ave","total_rides":"28955","median_trip_duration":" 9","median_age":"40"}},{"type":"Feature","geometry":{"type":"Point","coordinates":[-73.9907,40.7345]},"properties":{"station_id":" 285","station_name":"Broadway & E 14 St","total_rides":"38190","median_trip_duration":" 9","median_age":"38"}},{"type":"Feature","geometry":{"type":"Point","coordinates":[-73.9588,40.6846]},"properties":{"station_id":" 289","station_name":"Monroe St & Classon Ave","total_rides":" 1513","median_trip_duration":"11","median_age":"37"}},{"type":"Feature","geometry":{"type":"Point","coordinates":[-73.9848,40.7131]},"properties":{"station_id":" 291","station_name":"Madison St & Montgomery St","total_rides":" 7054","median_trip_duration":"11","median_age":"42"}},{"type":"Feature","geometry":{"type":"Point","coordinates":[-73.9908,40.7303]},"properties":{"station_id":" 293","station_name":"Lafayette St & E 8 St","total_rides":"43005","median_trip_duration":" 8","median_age":"38"}},{"type":"Feature","geometry":{"type":"Point","coordinates":[-73.9929,40.7141]},"properties":{"station_id":" 295","station_name":"Pike St & E Broadway","total_rides":" 7620","median_trip_duration":"10","median_age":"39"}},{"type":"Feature","geometry":{"type":"Point","coordinates":[-73.9971,40.7141]},"properties":{"station_id":" 296","station_name":"Division St & Bowery","total_rides":"11225","median_trip_duration":"10","median_age":"41"}},{"type":"Feature","geometry":{"type":"Point","coordinates":[-73.9869,40.7342]},"properties":{"station_id":" 297","station_name":"E 15 St & 3 Ave","total_rides":"16132","median_trip_duration":" 9","median_age":"36"}},{"type":"Feature","geometry":{"type":"Point","coordinates":[-73.9837,40.7222]},"properties":{"station_id":" 301","station_name":"E 2 St & Avenue B","total_rides":"17494","median_trip_duration":"10","median_age":"35"}},{"type":"Feature","geometry":{"type":"Point","coordinates":[-73.9779,40.7208]},"properties":{"station_id":" 302","station_name":"Avenue D & E 3 St","total_rides":" 5251","median_trip_duration":"12","median_age":"42"}},{"type":"Feature","geometry":{"type":"Point","coordinates":[-73.9995,40.7236]},"properties":{"station_id":" 303","station_name":"Mercer St & Spring St","total_rides":"15192","median_trip_duration":"11","median_age":"38"}},{"type":"Feature","geometry":{"type":"Point","coordinates":[-74.0136,40.7046]},"properties":{"station_id":" 304","station_name":"Broadway & Battery Pl","total_rides":"15158","median_trip_duration":"18","median_age":"40"}},{"type":"Feature","geometry":{"type":"Point","coordinates":[-73.9672,40.761]},"properties":{"station_id":" 305","station_name":"E 58 St & 3 Ave","total_rides":"18860","median_trip_duration":"14","median_age":"40"}},{"type":"Feature","geometry":{"type":"Point","coordinates":[-74.0053,40.7082]},"properties":{"station_id":" 306","station_name":"Cliff St & Fulton St","total_rides":"15391","median_trip_duration":"12","median_age":"37"}},{"type":"Feature","geometry":{"type":"Point","coordinates":[-73.9899,40.7143]},"properties":{"station_id":" 307","station_name":"Canal St & Rutgers St","total_rides":"15557","median_trip_duration":" 9","median_age":"39"}},{"type":"Feature","geometry":{"type":"Point","coordinates":[-73.9985,40.7131]},"properties":{"station_id":" 308","station_name":"St James Pl & Oliver St","total_rides":" 9061","median_trip_duration":" 9","median_age":"38"}},{"type":"Feature","geometry":{"type":"Point","coordinates":[-74.013,40.715]},"properties":{"station_id":" 309","station_name":"Murray St & West St","total_rides":"10777","median_trip_duration":"12","median_age":"38"}},{"type":"Feature","geometry":{"type":"Point","coordinates":[-73.9891,40.6893]},"properties":{"station_id":" 310","station_name":"State St & Smith St","total_rides":" 8648","median_trip_duration":"12","median_age":"39"}},{"type":"Feature","geometry":{"type":"Point","coordinates":[-73.988,40.7172]},"properties":{"station_id":" 311","station_name":"Norfolk St & Broome St","total_rides":"11870","median_trip_duration":"10","median_age":"41"}},{"type":"Feature","geometry":{"type":"Point","coordinates":[-73.9891,40.7221]},"properties":{"station_id":" 312","station_name":"Allen St & E Houston St","total_rides":"19007","median_trip_duration":"10","median_age":"36"}},{"type":"Feature","geometry":{"type":"Point","coordinates":[-73.9675,40.6961]},"properties":{"station_id":" 313","station_name":"Washington Ave & Park Ave","total_rides":" 3986","median_trip_duration":"11","median_age":"37"}},{"type":"Feature","geometry":{"type":"Point","coordinates":[-73.9922,40.6942]},"properties":{"station_id":" 314","station_name":"Montague St & Clinton St","total_rides":" 5422","median_trip_duration":" 9","median_age":"41"}},{"type":"Feature","geometry":{"type":"Point","coordinates":[-74.0067,40.7035]},"properties":{"station_id":" 315","station_name":"South St & Gouverneur Ln","total_rides":"13665","median_trip_duration":"21","median_age":"41"}},{"type":"Feature","geometry":{"type":"Point","coordinates":[-74.0065,40.7096]},"properties":{"station_id":" 316","station_name":"Fulton St & William St","total_rides":"11448","median_trip_duration":"10","median_age":"39"}},{"type":"Feature","geometry":{"type":"Point","coordinates":[-73.9818,40.7245]},"properties":{"station_id":" 317","station_name":"E 6 St & Avenue B","total_rides":"17257","median_trip_duration":"10","median_age":"35"}},{"type":"Feature","geometry":{"type":"Point","coordinates":[-74.0094,40.7134]},"properties":{"station_id":" 319","station_name":"Park Pl & Church St","total_rides":"13545","median_trip_duration":" 9","median_age":"41"}},{"type":"Feature","geometry":{"type":"Point","coordinates":[-74.0058,40.7174]},"properties":{"station_id":" 320","station_name":"Church St & Leonard St","total_rides":"11842","median_trip_duration":"10","median_age":"39"}},{"type":"Feature","geometry":{"type":"Point","coordinates":[-73.9897,40.6999]},"properties":{"station_id":" 321","station_name":"Cadman Plaza E & Red Cross Pl","total_rides":"  793","median_trip_duration":"16","median_age":"41"}},{"type":"Feature","geometry":{"type":"Point","coordinates":[-73.9912,40.6962]},"properties":{"station_id":" 322","station_name":"Clinton St & Tillary St","total_rides":" 5915","median_trip_duration":"16","median_age":"43"}},{"type":"Feature","geometry":{"type":"Point","coordinates":[-73.9863,40.6924]},"properties":{"station_id":" 323","station_name":"Lawrence St & Willoughby St","total_rides":"24200","median_trip_duration":" 9","median_age":"38"}},{"type":"Feature","geometry":{"type":"Point","coordinates":[-73.981,40.6899]},"properties":{"station_id":" 324","station_name":"DeKalb Ave & Hudson Ave","total_rides":"10436","median_trip_duration":" 8","median_age":"39"}},{"type":"Feature","geometry":{"type":"Point","coordinates":[-73.9847,40.7362]},"properties":{"station_id":" 325","station_name":"E 19 St & 3 Ave","total_rides":"17982","median_trip_duration":" 9","median_age":"38"}},{"type":"Feature","geometry":{"type":"Point","coordinates":[-73.9843,40.7295]},"properties":{"station_id":" 326","station_name":"E 11 St & 1 Ave","total_rides":"19531","median_trip_duration":"10","median_age":"37"}},{"type":"Feature","geometry":{"type":"Point","coordinates":[-74.0166,40.7153]},"properties":{"station_id":" 327","station_name":"Vesey Pl & River Terrace","total_rides":"27189","median_trip_duration":"14","median_age":"40"}},{"type":"Feature","geometry":{"type":"Point","coordinates":[-74.0097,40.7241]},"properties":{"station_id":" 328","station_name":"Watts St & Greenwich St","total_rides":"14540","median_trip_duration":"11","median_age":"40"}},{"type":"Feature","geometry":{"type":"Point","coordinates":[-74.0056,40.7145]},"properties":{"station_id":" 330","station_name":"Reade St & Broadway","total_rides":"10906","median_trip_duration":"10","median_age":"42"}},{"type":"Feature","geometry":{"type":"Point","coordinates":[-73.9919,40.7117]},"properties":{"station_id":" 331","station_name":"Pike St & Monroe St","total_rides":" 5820","median_trip_duration":"12","median_age":"37"}},{"type":"Feature","geometry":{"type":"Point","coordinates":[-73.9795,40.7122]},"properties":{"station_id":" 332","station_name":"Cherry St","total_rides":" 6360","median_trip_duration":"15","median_age":"45"}},{"type":"Feature","geometry":{"type":"Point","coordinates":[-73.9973,40.7424]},"properties":{"station_id":" 334","station_name":"W 20 St & 7 Ave","total_rides":"19974","median_trip_duration":" 8","median_age":"40"}},{"type":"Feature","geometry":{"type":"Point","coordinates":[-73.9941,40.729]},"properties":{"station_id":" 335","station_name":"Washington Pl & Broadway","total_rides":"16371","median_trip_duration":" 8","median_age":"35"}},{"type":"Feature","geometry":{"type":"Point","coordinates":[-73.9991,40.7305]},"properties":{"station_id":" 336","station_name":"Sullivan St & Washington Sq","total_rides":"18143","median_trip_duration":" 9","median_age":"35"}},{"type":"Feature","geometry":{"type":"Point","coordinates":[-74.0084,40.7038]},"properties":{"station_id":" 337","station_name":"Old Slip & Front St","total_rides":" 8172","median_trip_duration":"15","median_age":"39"}},{"type":"Feature","geometry":{"type":"Point","coordinates":[-73.9742,40.7258]},"properties":{"station_id":" 339","station_name":"Avenue D & E 12 St","total_rides":" 2784","median_trip_duration":"15","median_age":"40"}},{"type":"Feature","geometry":{"type":"Point","coordinates":[-73.9878,40.7127]},"properties":{"station_id":" 340","station_name":"Madison St & Clinton St","total_rides":" 6406","median_trip_duration":"10","median_age":"38"}},{"type":"Feature","geometry":{"type":"Point","coordinates":[-73.9763,40.7178]},"properties":{"station_id":" 341","station_name":"Stanton St & Mangin St","total_rides":" 6172","median_trip_duration":"14","median_age":"41"}},{"type":"Feature","geometry":{"type":"Point","coordinates":[-73.9802,40.7174]},"properties":{"station_id":" 342","station_name":"Columbia St & Rivington St","total_rides":" 7227","median_trip_duration":"11","median_age":"43"}},{"type":"Feature","geometry":{"type":"Point","coordinates":[-73.9699,40.6979]},"properties":{"station_id":" 343","station_name":"Clinton Ave & Flushing Ave","total_rides":" 2235","median_trip_duration":"12","median_age":"37"}},{"type":"Feature","geometry":{"type":"Point","coordinates":[-73.9538,40.6851]},"properties":{"station_id":" 344","station_name":"Monroe St & Bedford Ave","total_rides":" 2196","median_trip_duration":" 8","median_age":"37"}},{"type":"Feature","geometry":{"type":"Point","coordinates":[-73.997,40.7365]},"properties":{"station_id":" 345","station_name":"W 13 St & 6 Ave","total_rides":"21266","median_trip_duration":" 9","median_age":"39"}},{"type":"Feature","geometry":{"type":"Point","coordinates":[-74.0062,40.7365]},"properties":{"station_id":" 346","station_name":"Bank St & Hudson St","total_rides":"14628","median_trip_duration":"11","median_age":"41"}},{"type":"Feature","geometry":{"type":"Point","coordinates":[-74.0075,40.7287]},"properties":{"station_id":" 347","station_name":"W Houston St & Hudson St","total_rides":"25320","median_trip_duration":"12","median_age":"39"}},{"type":"Feature","geometry":{"type":"Point","coordinates":[-74.0015,40.7249]},"properties":{"station_id":" 348","station_name":"W Broadway & Spring St","total_rides":"19813","median_trip_duration":"11","median_age":"39"}},{"type":"Feature","geometry":{"type":"Point","coordinates":[-73.9833,40.7185]},"properties":{"station_id":" 349","station_name":"Rivington St & Ridge St","total_rides":" 8453","median_trip_duration":"12","median_age":"36"}},{"type":"Feature","geometry":{"type":"Point","coordinates":[-73.987,40.7156]},"properties":{"station_id":" 350","station_name":"Clinton St & Grand St","total_rides":"12270","median_trip_duration":"10","median_age":"43"}},{"type":"Feature","geometry":{"type":"Point","coordinates":[-74.0061,40.7053]},"properties":{"station_id":" 351","station_name":"Front St & Maiden Ln","total_rides":"10481","median_trip_duration":"18","median_age":"39"}},{"type":"Feature","geometry":{"type":"Point","coordinates":[-73.9743,40.6854]},"properties":{"station_id":" 353","station_name":"S Portland Ave & Hanson Pl","total_rides":" 2848","median_trip_duration":" 8","median_age":"38"}},{"type":"Feature","geometry":{"type":"Point","coordinates":[-73.9622,40.6936]},"properties":{"station_id":" 354","station_name":"Emerson Pl & Myrtle Ave","total_rides":" 3103","median_trip_duration":"10","median_age":"36"}},{"type":"Feature","geometry":{"type":"Point","coordinates":[-73.9997,40.716]},"properties":{"station_id":" 355","station_name":"Bayard St & Baxter St","total_rides":"13525","median_trip_duration":"10","median_age":"39"}},{"type":"Feature","geometry":{"type":"Point","coordinates":[-73.9826,40.7162]},"properties":{"station_id":" 356","station_name":"Bialystoker Pl & Delancey St","total_rides":" 7551","median_trip_duration":"12","median_age":"45"}},{"type":"Feature","geometry":{"type":"Point","coordinates":[-73.9916,40.7326]},"properties":{"station_id":" 357","station_name":"E 11 St & Broadway","total_rides":"13486","median_trip_duration":" 9","median_age":"41"}},{"type":"Feature","geometry":{"type":"Point","coordinates":[-74.0071,40.7329]},"properties":{"station_id":" 358","station_name":"Christopher St & Greenwich St","total_rides":"25312","median_trip_duration":"12","median_age":"39"}},{"type":"Feature","geometry":{"type":"Point","coordinates":[-73.975,40.7551]},"properties":{"station_id":" 359","station_name":"E 47 St & Park Ave","total_rides":"14378","median_trip_duration":"10","median_age":"42"}},{"type":"Feature","geometry":{"type":"Point","coordinates":[-74.0089,40.7072]},"properties":{"station_id":" 360","station_name":"William St & Pine St","total_rides":"11157","median_trip_duration":"11","median_age":"38"}},{"type":"Feature","geometry":{"type":"Point","coordinates":[-73.9919,40.7161]},"properties":{"station_id":" 361","station_name":"Allen St & Hester St","total_rides":"14995","median_trip_duration":"10","median_age":"38"}},{"type":"Feature","geometry":{"type":"Point","coordinates":[-74.0171,40.7084]},"properties":{"station_id":" 363","station_name":"West Thames St","total_rides":"22162","median_trip_duration":"15","median_age":"42"}},{"type":"Feature","geometry":{"type":"Point","coordinates":[-73.9602,40.689]},"properties":{"station_id":" 364","station_name":"Lafayette Ave & Classon Ave","total_rides":" 3108","median_trip_duration":" 8","median_age":"36"}},{"type":"Feature","geometry":{"type":"Point","coordinates":[-73.9615,40.6822]},"properties":{"station_id":" 365","station_name":"Fulton St & Grand Ave","total_rides":" 3419","median_trip_duration":"10","median_age":"37"}},{"type":"Feature","geometry":{"type":"Point","coordinates":[-73.9689,40.6933]},"properties":{"station_id":" 366","station_name":"Clinton Ave & Myrtle Ave","total_rides":" 6721","median_trip_duration":" 7","median_age":"39"}},{"type":"Feature","geometry":{"type":"Point","coordinates":[-74.0022,40.7304]},"properties":{"station_id":" 368","station_name":"Carmine St & 6 Ave","total_rides":"27765","median_trip_duration":"10","median_age":"37"}},{"type":"Feature","geometry":{"type":"Point","coordinates":[-74.0003,40.7322]},"properties":{"station_id":" 369","station_name":"Washington Pl & 6 Ave","total_rides":"13318","median_trip_duration":" 8","median_age":"38"}},{"type":"Feature","geometry":{"type":"Point","coordinates":[-73.9581,40.6945]},"properties":{"station_id":" 372","station_name":"Franklin Ave & Myrtle Ave","total_rides":" 1431","median_trip_duration":"12","median_age":"36"}},{"type":"Feature","geometry":{"type":"Point","coordinates":[-73.9538,40.6933]},"properties":{"station_id":" 373","station_name":"Willoughby Ave & Walworth St","total_rides":" 2967","median_trip_duration":"14","median_age":"37"}},{"type":"Feature","geometry":{"type":"Point","coordinates":[-74.0072,40.7086]},"properties":{"station_id":" 376","station_name":"John St & William St","total_rides":"10447","median_trip_duration":"11","median_age":"40"}},{"type":"Feature","geometry":{"type":"Point","coordinates":[-74.0057,40.7224]},"properties":{"station_id":" 377","station_name":"6 Ave & Canal St","total_rides":"11573","median_trip_duration":"11","median_age":"40"}},{"type":"Feature","geometry":{"type":"Point","coordinates":[-73.9916,40.7492]},"properties":{"station_id":" 379","station_name":"W 31 St & 7 Ave","total_rides":"18403","median_trip_duration":" 9","median_age":"42"}},{"type":"Feature","geometry":{"type":"Point","coordinates":[-74.0029,40.734]},"properties":{"station_id":" 380","station_name":"W 4 St & 7 Ave S","total_rides":"27425","median_trip_duration":" 9","median_age":"38"}},{"type":"Feature","geometry":{"type":"Point","coordinates":[-73.992,40.7349]},"properties":{"station_id":" 382","station_name":"University Pl & E 14 St","total_rides":"32353","median_trip_duration":" 9","median_age":"39"}},{"type":"Feature","geometry":{"type":"Point","coordinates":[-74.0003,40.7352]},"properties":{"station_id":" 383","station_name":"Greenwich Ave & Charles St","total_rides":"12582","median_trip_duration":" 9","median_age":"38"}},{"type":"Feature","geometry":{"type":"Point","coordinates":[-73.966,40.6832]},"properties":{"station_id":" 384","station_name":"Fulton St & Waverly Ave","total_rides":" 5138","median_trip_duration":" 8","median_age":"38"}},{"type":"Feature","geometry":{"type":"Point","coordinates":[-73.966,40.758]},"properties":{"station_id":" 385","station_name":"E 55 St & 2 Ave","total_rides":" 9307","median_trip_duration":"13","median_age":"38"}},{"type":"Feature","geometry":{"type":"Point","coordinates":[-74.0023,40.715]},"properties":{"station_id":" 386","station_name":"Centre St & Worth St","total_rides":"12452","median_trip_duration":"12","median_age":"40"}},{"type":"Feature","geometry":{"type":"Point","coordinates":[-74.0046,40.7127]},"properties":{"station_id":" 387","station_name":"Centre St & Chambers St","total_rides":"25899","median_trip_duration":"15","median_age":"39"}},{"type":"Feature","geometry":{"type":"Point","coordinates":[-74.0029,40.7497]},"properties":{"station_id":" 388","station_name":"W 26 St & 10 Ave","total_rides":"19801","median_trip_duration":"12","median_age":"41"}},{"type":"Feature","geometry":{"type":"Point","coordinates":[-73.9652,40.7105]},"properties":{"station_id":" 389","station_name":"Broadway & Berry St","total_rides":" 4308","median_trip_duration":"16","median_age":"38"}},{"type":"Feature","geometry":{"type":"Point","coordinates":[-73.9843,40.6922]},"properties":{"station_id":" 390","station_name":"Duffield St & Willoughby St","total_rides":" 3149","median_trip_duration":"10","median_age":"40"}},{"type":"Feature","geometry":{"type":"Point","coordinates":[-73.9934,40.6976]},"properties":{"station_id":" 391","station_name":"Clark St & Henry St","total_rides":" 9541","median_trip_duration":" 7","median_age":"41"}},{"type":"Feature","geometry":{"type":"Point","coordinates":[-73.9872,40.6951]},"properties":{"station_id":" 392","station_name":"Jay St & Tech Pl","total_rides":" 3587","median_trip_duration":"16","median_age":"37"}},{"type":"Feature","geometry":{"type":"Point","coordinates":[-73.98,40.723]},"properties":{"station_id":" 393","station_name":"E 5 St & Avenue C","total_rides":" 8558","median_trip_duration":"10","median_age":"35"}},{"type":"Feature","geometry":{"type":"Point","coordinates":[-73.9777,40.7252]},"properties":{"station_id":" 394","station_name":"E 9 St & Avenue C","total_rides":"14573","median_trip_duration":"11","median_age":"35"}},{"type":"Feature","geometry":{"type":"Point","coordinates":[-73.9841,40.6881]},"properties":{"station_id":" 395","station_name":"Bond St & Schermerhorn St","total_rides":" 5398","median_trip_duration":"11","median_age":"39"}},{"type":"Feature","geometry":{"type":"Point","coordinates":[-73.9558,40.6803]},"properties":{"station_id":" 396","station_name":"Lefferts Pl & Franklin Ave","total_rides":" 3497","median_trip_duration":"12","median_age":"36"}},{"type":"Feature","geometry":{"type":"Point","coordinates":[-73.9692,40.6842]},"properties":{"station_id":" 397","station_name":"Fulton St & Clermont Ave","total_rides":" 2260","median_trip_duration":"13","median_age":"37"}},{"type":"Feature","geometry":{"type":"Point","coordinates":[-74,40.6917]},"properties":{"station_id":" 398","station_name":"Atlantic Ave & Furman St","total_rides":" 6375","median_trip_duration":"19","median_age":"40"}},{"type":"Feature","geometry":{"type":"Point","coordinates":[-73.9648,40.6885]},"properties":{"station_id":" 399","station_name":"Lafayette Ave & St James Pl","total_rides":" 2831","median_trip_duration":" 7","median_age":"38"}},{"type":"Feature","geometry":{"type":"Point","coordinates":[-73.9818,40.7193]},"properties":{"station_id":" 400","station_name":"Pitt St & Stanton St","total_rides":" 3934","median_trip_duration":"12","median_age":"38"}},{"type":"Feature","geometry":{"type":"Point","coordinates":[-73.99,40.7202]},"properties":{"station_id":" 401","station_name":"Allen St & Rivington St","total_rides":"21275","median_trip_duration":"10","median_age":"35"}},{"type":"Feature","geometry":{"type":"Point","coordinates":[-73.9895,40.7403]},"properties":{"station_id":" 402","station_name":"Broadway & E 22 St","total_rides":"31747","median_trip_duration":" 9","median_age":"41"}},{"type":"Feature","geometry":{"type":"Point","coordinates":[-73.9907,40.725]},"properties":{"station_id":" 403","station_name":"E 2 St & 2 Ave","total_rides":"15159","median_trip_duration":" 9","median_age":"37"}},{"type":"Feature","geometry":{"type":"Point","coordinates":[-74.0081,40.7393]},"properties":{"station_id":" 405","station_name":"Washington St & Gansevoort St","total_rides":"18312","median_trip_duration":"12","median_age":"38"}},{"type":"Feature","geometry":{"type":"Point","coordinates":[-73.9959,40.6951]},"properties":{"station_id":" 406","station_name":"Hicks St & Montague St","total_rides":" 6603","median_trip_duration":" 9","median_age":"41"}},{"type":"Feature","geometry":{"type":"Point","coordinates":[-73.9915,40.7005]},"properties":{"station_id":" 407","station_name":"Henry St & Poplar St","total_rides":" 3359","median_trip_duration":"15","median_age":"42"}},{"type":"Feature","geometry":{"type":"Point","coordinates":[-73.994,40.7108]},"properties":{"station_id":" 408","station_name":"Market St & Cherry St","total_rides":" 5923","median_trip_duration":"11","median_age":"40"}},{"type":"Feature","geometry":{"type":"Point","coordinates":[-73.9564,40.6906]},"properties":{"station_id":" 409","station_name":"DeKalb Ave & Skillman St","total_rides":" 2043","median_trip_duration":"12","median_age":"34"}},{"type":"Feature","geometry":{"type":"Point","coordinates":[-73.9852,40.7207]},"properties":{"station_id":" 410","station_name":"Suffolk St & Stanton St","total_rides":"17692","median_trip_duration":"11","median_age":"37"}},{"type":"Feature","geometry":{"type":"Point","coordinates":[-73.9767,40.7223]},"properties":{"station_id":" 411","station_name":"E 6 St & Avenue D","total_rides":" 6268","median_trip_duration":"13","median_age":"38"}},{"type":"Feature","geometry":{"type":"Point","coordinates":[-73.9942,40.7158]},"properties":{"station_id":" 412","station_name":"Forsyth St & Canal St","total_rides":"11738","median_trip_duration":"13","median_age":"38"}},{"type":"Feature","geometry":{"type":"Point","coordinates":[-73.9877,40.7028]},"properties":{"station_id":" 414","station_name":"Pearl St & Anchorage Pl","total_rides":" 6174","median_trip_duration":"14","median_age":"40"}},{"type":"Feature","geometry":{"type":"Point","coordinates":[-74.0093,40.7047]},"properties":{"station_id":" 415","station_name":"Pearl St & Hanover Square","total_rides":"11913","median_trip_duration":"13","median_age":"38"}},{"type":"Feature","geometry":{"type":"Point","coordinates":[-73.9727,40.6875]},"properties":{"station_id":" 416","station_name":"Cumberland St & Lafayette Ave","total_rides":" 4381","median_trip_duration":" 7","median_age":"37"}},{"type":"Feature","geometry":{"type":"Point","coordinates":[-74.0102,40.7129]},"properties":{"station_id":" 417","station_name":"Barclay St & Church St","total_rides":"25283","median_trip_duration":" 9","median_age":"40"}},{"type":"Feature","geometry":{"type":"Point","coordinates":[-73.9826,40.7022]},"properties":{"station_id":" 418","station_name":"Front St & Gold St","total_rides":" 3589","median_trip_duration":"11","median_age":"39"}},{"type":"Feature","geometry":{"type":"Point","coordinates":[-73.9736,40.6958]},"properties":{"station_id":" 419","station_name":"Carlton Ave & Park Ave","total_rides":" 3325","median_trip_duration":" 9","median_age":"38"}},{"type":"Feature","geometry":{"type":"Point","coordinates":[-73.9697,40.6876]},"properties":{"station_id":" 420","station_name":"Clermont Ave & Lafayette Ave","total_rides":" 3044","median_trip_duration":" 7","median_age":"37"}},{"type":"Feature","geometry":{"type":"Point","coordinates":[-73.9713,40.6957]},"properties":{"station_id":" 421","station_name":"Clermont Ave & Park Ave","total_rides":" 2068","median_trip_duration":" 8","median_age":"35"}},{"type":"Feature","geometry":{"type":"Point","coordinates":[-73.988,40.7705]},"properties":{"station_id":" 422","station_name":"W 59 St & 10 Ave","total_rides":"16250","median_trip_duration":"14","median_age":"39"}},{"type":"Feature","geometry":{"type":"Point","coordinates":[-73.9869,40.7659]},"properties":{"station_id":" 423","station_name":"W 54 St & 9 Ave","total_rides":" 9037","median_trip_duration":" 9","median_age":"39"}},{"type":"Feature","geometry":{"type":"Point","coordinates":[-74.0132,40.7176]},"properties":{"station_id":" 426","station_name":"West St & Chambers St","total_rides":"36421","median_trip_duration":"16","median_age":"39"}},{"type":"Feature","geometry":{"type":"Point","coordinates":[-74.0143,40.7025]},"properties":{"station_id":" 427","station_name":"State St","total_rides":"12658","median_trip_duration":"21","median_age":"40"}},{"type":"Feature","geometry":{"type":"Point","coordinates":[-73.9878,40.7247]},"properties":{"station_id":" 428","station_name":"E 3 St & 1 Ave","total_rides":"17370","median_trip_duration":" 9","median_age":"37"}},{"type":"Feature","geometry":{"type":"Point","coordinates":[-73.9866,40.7015]},"properties":{"station_id":" 430","station_name":"York St & Jay St","total_rides":" 9547","median_trip_duration":"11","median_age":"37"}},{"type":"Feature","geometry":{"type":"Point","coordinates":[-73.9838,40.7262]},"properties":{"station_id":" 432","station_name":"E 7 St & Avenue A","total_rides":"17060","median_trip_duration":" 9","median_age":"35"}},{"type":"Feature","geometry":{"type":"Point","coordinates":[-73.9806,40.7296]},"properties":{"station_id":" 433","station_name":"E 13 St & Avenue A","total_rides":"18486","median_trip_duration":" 9","median_age":"35"}},{"type":"Feature","geometry":{"type":"Point","coordinates":[-74.0037,40.7432]},"properties":{"station_id":" 434","station_name":"9 Ave & W 18 St","total_rides":"14029","median_trip_duration":"11","median_age":"41"}},{"type":"Feature","geometry":{"type":"Point","coordinates":[-73.9942,40.7417]},"properties":{"station_id":" 435","station_name":"W 21 St & 6 Ave","total_rides":"34199","median_trip_duration":" 9","median_age":"41"}},{"type":"Feature","geometry":{"type":"Point","coordinates":[-73.954,40.6822]},"properties":{"station_id":" 436","station_name":"Hancock St & Bedford Ave","total_rides":" 1916","median_trip_duration":"13","median_age":"36"}},{"type":"Feature","geometry":{"type":"Point","coordinates":[-73.9501,40.681]},"properties":{"station_id":" 437","station_name":"Macon St & Nostrand Ave","total_rides":" 2574","median_trip_duration":"14","median_age":"35"}},{"type":"Feature","geometry":{"type":"Point","coordinates":[-73.9857,40.7278]},"properties":{"station_id":" 438","station_name":"St Marks Pl & 1 Ave","total_rides":"15254","median_trip_duration":"10","median_age":"35"}},{"type":"Feature","geometry":{"type":"Point","coordinates":[-73.9898,40.7263]},"properties":{"station_id":" 439","station_name":"E 4 St & 2 Ave","total_rides":"19556","median_trip_duration":"10","median_age":"36"}},{"type":"Feature","geometry":{"type":"Point","coordinates":[-73.9728,40.7525]},"properties":{"station_id":" 440","station_name":"E 45 St & 3 Ave","total_rides":"10380","median_trip_duration":"11","median_age":"40"}},{"type":"Feature","geometry":{"type":"Point","coordinates":[-73.9674,40.756]},"properties":{"station_id":" 441","station_name":"E 52 St & 2 Ave","total_rides":" 6687","median_trip_duration":"12","median_age":"37"}},{"type":"Feature","geometry":{"type":"Point","coordinates":[-73.9939,40.7467]},"properties":{"station_id":" 442","station_name":"W 27 St & 7 Ave","total_rides":"22099","median_trip_duration":" 9","median_age":"40"}},{"type":"Feature","geometry":{"type":"Point","coordinates":[-73.9641,40.7085]},"properties":{"station_id":" 443","station_name":"Bedford Ave & S 9th St","total_rides":" 1706","median_trip_duration":"17","median_age":"35"}},{"type":"Feature","geometry":{"type":"Point","coordinates":[-73.9891,40.7424]},"properties":{"station_id":" 444","station_name":"Broadway & W 24 St","total_rides":"31152","median_trip_duration":"10","median_age":"41"}},{"type":"Feature","geometry":{"type":"Point","coordinates":[-73.9814,40.7274]},"properties":{"station_id":" 445","station_name":"E 10 St & Avenue A","total_rides":"18606","median_trip_duration":"10","median_age":"35"}},{"type":"Feature","geometry":{"type":"Point","coordinates":[-73.9953,40.7449]},"properties":{"station_id":" 446","station_name":"W 24 St & 7 Ave","total_rides":"22316","median_trip_duration":" 8","median_age":"41"}},{"type":"Feature","geometry":{"type":"Point","coordinates":[-73.9852,40.7637]},"properties":{"station_id":" 447","station_name":"8 Ave & W 52 St","total_rides":"18963","median_trip_duration":" 9","median_age":"39"}},{"type":"Feature","geometry":{"type":"Point","coordinates":[-73.9979,40.7566]},"properties":{"station_id":" 448","station_name":"W 37 St & 10 Ave","total_rides":"17103","median_trip_duration":"10","median_age":"35"}},{"type":"Feature","geometry":{"type":"Point","coordinates":[-73.9879,40.7646]},"properties":{"station_id":" 449","station_name":"W 52 St & 9 Ave","total_rides":"10418","median_trip_duration":" 9","median_age":"38"}},{"type":"Feature","geometry":{"type":"Point","coordinates":[-73.9879,40.7623]},"properties":{"station_id":" 450","station_name":"W 49 St & 8 Ave","total_rides":"20029","median_trip_duration":" 9","median_age":"39"}},{"type":"Feature","geometry":{"type":"Point","coordinates":[-73.9992,40.7448]},"properties":{"station_id":" 453","station_name":"W 22 St & 8 Ave","total_rides":"20000","median_trip_duration":" 9","median_age":"42"}},{"type":"Feature","geometry":{"type":"Point","coordinates":[-73.9659,40.7546]},"properties":{"station_id":" 454","station_name":"E 51 St & 1 Ave","total_rides":" 8954","median_trip_duration":"14","median_age":"38"}},{"type":"Feature","geometry":{"type":"Point","coordinates":[-73.969,40.75]},"properties":{"station_id":" 455","station_name":"1 Ave & E 44 St","total_rides":"10138","median_trip_duration":"12","median_age":"42"}},{"type":"Feature","geometry":{"type":"Point","coordinates":[-73.974,40.7597]},"properties":{"station_id":" 456","station_name":"E 53 St & Madison Ave","total_rides":"11764","median_trip_duration":"11","median_age":"42"}},{"type":"Feature","geometry":{"type":"Point","coordinates":[-73.9817,40.767]},"properties":{"station_id":" 457","station_name":"Broadway & W 58 St","total_rides":"24737","median_trip_duration":"14","median_age":"40"}},{"type":"Feature","geometry":{"type":"Point","coordinates":[-74.0052,40.7514]},"properties":{"station_id":" 458","station_name":"11 Ave & W 27 St","total_rides":"14797","median_trip_duration":"10","median_age":"40"}},{"type":"Feature","geometry":{"type":"Point","coordinates":[-74.0078,40.7467]},"properties":{"station_id":" 459","station_name":"W 20 St & 11 Ave","total_rides":"41045","median_trip_duration":"11","median_age":"38"}},{"type":"Feature","geometry":{"type":"Point","coordinates":[-73.9659,40.7129]},"properties":{"station_id":" 460","station_name":"S 4 St & Wythe Ave","total_rides":" 4402","median_trip_duration":"16","median_age":"35"}},{"type":"Feature","geometry":{"type":"Point","coordinates":[-73.9821,40.7359]},"properties":{"station_id":" 461","station_name":"E 20 St & 2 Ave","total_rides":"15963","median_trip_duration":"10","median_age":"36"}},{"type":"Feature","geometry":{"type":"Point","coordinates":[-74.0045,40.7469]},"properties":{"station_id":" 462","station_name":"W 22 St & 10 Ave","total_rides":"25208","median_trip_duration":"11","median_age":"40"}},{"type":"Feature","geometry":{"type":"Point","coordinates":[-73.9866,40.7551]},"properties":{"station_id":" 465","station_name":"Broadway & W 41 St","total_rides":"21616","median_trip_duration":" 9","median_age":"41"}},{"type":"Feature","geometry":{"type":"Point","coordinates":[-73.9915,40.7439]},"properties":{"station_id":" 466","station_name":"W 25 St & 6 Ave","total_rides":"23540","median_trip_duration":" 9","median_age":"40"}},{"type":"Feature","geometry":{"type":"Point","coordinates":[-73.9789,40.6831]},"properties":{"station_id":" 467","station_name":"Dean St & 4 Ave","total_rides":" 7857","median_trip_duration":"18","median_age":"38"}},{"type":"Feature","geometry":{"type":"Point","coordinates":[-73.9819,40.7653]},"properties":{"station_id":" 468","station_name":"Broadway & W 55 St","total_rides":"17164","median_trip_duration":"11","median_age":"39"}},{"type":"Feature","geometry":{"type":"Point","coordinates":[-73.9827,40.7634]},"properties":{"station_id":" 469","station_name":"Broadway & W 53 St","total_rides":"18531","median_trip_duration":" 9","median_age":"40"}},{"type":"Feature","geometry":{"type":"Point","coordinates":[-74,40.7435]},"properties":{"station_id":" 470","station_name":"W 20 St & 8 Ave","total_rides":"15478","median_trip_duration":" 9","median_age":"41"}},{"type":"Feature","geometry":{"type":"Point","coordinates":[-73.957,40.7129]},"properties":{"station_id":" 471","station_name":"Grand St & Havemeyer St","total_rides":" 4949","median_trip_duration":"19","median_age":"36"}},{"type":"Feature","geometry":{"type":"Point","coordinates":[-73.9819,40.7457]},"properties":{"station_id":" 472","station_name":"E 32 St & Park Ave","total_rides":"24034","median_trip_duration":" 8","median_age":"39"}},{"type":"Feature","geometry":{"type":"Point","coordinates":[-73.9919,40.7211]},"properties":{"station_id":" 473","station_name":"Rivington St & Chrystie St","total_rides":"12066","median_trip_duration":"11","median_age":"37"}},{"type":"Feature","geometry":{"type":"Point","coordinates":[-73.9868,40.7452]},"properties":{"station_id":" 474","station_name":"5 Ave & E 29 St","total_rides":"17927","median_trip_duration":" 9","median_age":"41"}},{"type":"Feature","geometry":{"type":"Point","coordinates":[-73.9797,40.7439]},"properties":{"station_id":" 476","station_name":"E 31 St & 3 Ave","total_rides":"19372","median_trip_duration":" 9","median_age":"36"}},{"type":"Feature","geometry":{"type":"Point","coordinates":[-73.99,40.7564]},"properties":{"station_id":" 477","station_name":"W 41 St & 8 Ave","total_rides":"30777","median_trip_duration":"10","median_age":"42"}},{"type":"Feature","geometry":{"type":"Point","coordinates":[-73.9988,40.7603]},"properties":{"station_id":" 478","station_name":"11 Ave & W 41 St","total_rides":"13783","median_trip_duration":"12","median_age":"38"}},{"type":"Feature","geometry":{"type":"Point","coordinates":[-73.9913,40.7602]},"properties":{"station_id":" 479","station_name":"9 Ave & W 45 St","total_rides":"18906","median_trip_duration":"11","median_age":"38"}},{"type":"Feature","geometry":{"type":"Point","coordinates":[-73.9906,40.7667]},"properties":{"station_id":" 480","station_name":"W 53 St & 10 Ave","total_rides":"10645","median_trip_duration":"11","median_age":"38"}},{"type":"Feature","geometry":{"type":"Point","coordinates":[-73.9626,40.7126]},"properties":{"station_id":" 481","station_name":"S 3 St & Bedford Ave","total_rides":" 4939","median_trip_duration":"19","median_age":"36"}},{"type":"Feature","geometry":{"type":"Point","coordinates":[-73.9993,40.7394]},"properties":{"station_id":" 482","station_name":"W 15 St & 7 Ave","total_rides":"21786","median_trip_duration":" 9","median_age":"40"}},{"type":"Feature","geometry":{"type":"Point","coordinates":[-73.9889,40.7322]},"properties":{"station_id":" 483","station_name":"E 12 St & 3 Ave","total_rides":"18105","median_trip_duration":" 8","median_age":"35"}},{"type":"Feature","geometry":{"type":"Point","coordinates":[-73.9801,40.755]},"properties":{"station_id":" 484","station_name":"W 44 St & 5 Ave","total_rides":"11614","median_trip_duration":" 9","median_age":"42"}},{"type":"Feature","geometry":{"type":"Point","coordinates":[-73.9834,40.7504]},"properties":{"station_id":" 485","station_name":"W 37 St & 5 Ave","total_rides":"13624","median_trip_duration":" 9","median_age":"42"}},{"type":"Feature","geometry":{"type":"Point","coordinates":[-73.9886,40.7462]},"properties":{"station_id":" 486","station_name":"Broadway & W 29 St","total_rides":"17998","median_trip_duration":" 9","median_age":"40"}},{"type":"Feature","geometry":{"type":"Point","coordinates":[-73.9757,40.7331]},"properties":{"station_id":" 487","station_name":"E 20 St & FDR Drive","total_rides":"13700","median_trip_duration":"12","median_age":"36"}},{"type":"Feature","geometry":{"type":"Point","coordinates":[-73.9937,40.7565]},"properties":{"station_id":" 488","station_name":"W 39 St & 9 Ave","total_rides":"22871","median_trip_duration":"11","median_age":"41"}},{"type":"Feature","geometry":{"type":"Point","coordinates":[-73.9939,40.7516]},"properties":{"station_id":" 490","station_name":"8 Ave & W 33 St","total_rides":"32856","median_trip_duration":"10","median_age":"42"}},{"type":"Feature","geometry":{"type":"Point","coordinates":[-73.9909,40.7502]},"properties":{"station_id":" 492","station_name":"W 33 St & 7 Ave","total_rides":"23540","median_trip_duration":" 9","median_age":"42"}},{"type":"Feature","geometry":{"type":"Point","coordinates":[-73.9972,40.7473]},"properties":{"station_id":" 494","station_name":"W 26 St & 8 Ave","total_rides":"17085","median_trip_duration":" 9","median_age":"40"}},{"type":"Feature","geometry":{"type":"Point","coordinates":[-73.993,40.7627]},"properties":{"station_id":" 495","station_name":"W 47 St & 10 Ave","total_rides":"13338","median_trip_duration":"10","median_age":"39"}},{"type":"Feature","geometry":{"type":"Point","coordinates":[-73.9924,40.7373]},"properties":{"station_id":" 496","station_name":"E 16 St & 5 Ave","total_rides":"15349","median_trip_duration":" 9","median_age":"41"}},{"type":"Feature","geometry":{"type":"Point","coordinates":[-73.9901,40.7371]},"properties":{"station_id":" 497","station_name":"E 17 St & Broadway","total_rides":"44821","median_trip_duration":" 9","median_age":"40"}},{"type":"Feature","geometry":{"type":"Point","coordinates":[-73.9881,40.7486]},"properties":{"station_id":" 498","station_name":"Broadway & W 32 St","total_rides":"20273","median_trip_duration":" 9","median_age":"37"}},{"type":"Feature","geometry":{"type":"Point","coordinates":[-73.9819,40.7692]},"properties":{"station_id":" 499","station_name":"Broadway & W 60 St","total_rides":"29925","median_trip_duration":"16","median_age":"40"}},{"type":"Feature","geometry":{"type":"Point","coordinates":[-73.9834,40.7623]},"properties":{"station_id":" 500","station_name":"Broadway & W 51 St","total_rides":"14131","median_trip_duration":" 9","median_age":"40"}},{"type":"Feature","geometry":{"type":"Point","coordinates":[-73.9712,40.7442]},"properties":{"station_id":" 501","station_name":"FDR Drive & E 35 St","total_rides":"13304","median_trip_duration":"13","median_age":"42"}},{"type":"Feature","geometry":{"type":"Point","coordinates":[-73.9814,40.7142]},"properties":{"station_id":" 502","station_name":"Henry St & Grand St","total_rides":" 6761","median_trip_duration":"10","median_age":"45"}},{"type":"Feature","geometry":{"type":"Point","coordinates":[-73.9875,40.7383]},"properties":{"station_id":" 503","station_name":"E 20 St & Park Ave","total_rides":" 9586","median_trip_duration":" 9","median_age":"39"}},{"type":"Feature","geometry":{"type":"Point","coordinates":[-73.9817,40.7322]},"properties":{"station_id":" 504","station_name":"1 Ave & E 15 St","total_rides":"23806","median_trip_duration":" 9","median_age":"36"}},{"type":"Feature","geometry":{"type":"Point","coordinates":[-73.9885,40.749]},"properties":{"station_id":" 505","station_name":"6 Ave & W 33 St","total_rides":"19225","median_trip_duration":"10","median_age":"38"}},{"type":"Feature","geometry":{"type":"Point","coordinates":[-73.9797,40.7391]},"properties":{"station_id":" 507","station_name":"E 25 St & 2 Ave","total_rides":"21461","median_trip_duration":"10","median_age":"36"}},{"type":"Feature","geometry":{"type":"Point","coordinates":[-73.9967,40.7634]},"properties":{"station_id":" 508","station_name":"W 46 St & 11 Ave","total_rides":"11218","median_trip_duration":"16","median_age":"40"}},{"type":"Feature","geometry":{"type":"Point","coordinates":[-74.002,40.7455]},"properties":{"station_id":" 509","station_name":"9 Ave & W 22 St","total_rides":"21507","median_trip_duration":" 9","median_age":"42"}},{"type":"Feature","geometry":{"type":"Point","coordinates":[-73.9777,40.7294]},"properties":{"station_id":" 511","station_name":"E 14 St & Avenue B","total_rides":"13893","median_trip_duration":"11","median_age":"35"}},{"type":"Feature","geometry":{"type":"Point","coordinates":[-73.9886,40.7683]},"properties":{"station_id":" 513","station_name":"W 56 St & 10 Ave","total_rides":"10304","median_trip_duration":"11","median_age":"39"}},{"type":"Feature","geometry":{"type":"Point","coordinates":[-74.0028,40.7609]},"properties":{"station_id":" 514","station_name":"12 Ave & W 40 St","total_rides":"16908","median_trip_duration":"18","median_age":"40"}},{"type":"Feature","geometry":{"type":"Point","coordinates":[-73.9946,40.7601]},"properties":{"station_id":" 515","station_name":"W 43 St & 10 Ave","total_rides":"17752","median_trip_duration":"11","median_age":"41"}},{"type":"Feature","geometry":{"type":"Point","coordinates":[-73.9678,40.7521]},"properties":{"station_id":" 516","station_name":"E 47 St & 1 Ave","total_rides":" 6330","median_trip_duration":"12","median_age":"41"}},{"type":"Feature","geometry":{"type":"Point","coordinates":[-73.978,40.7515]},"properties":{"station_id":" 517","station_name":"Pershing Square S","total_rides":"26152","median_trip_duration":"10","median_age":"44"}},{"type":"Feature","geometry":{"type":"Point","coordinates":[-73.9734,40.7478]},"properties":{"station_id":" 518","station_name":"E 39 St & 2 Ave","total_rides":"26147","median_trip_duration":"11","median_age":"37"}},{"type":"Feature","geometry":{"type":"Point","coordinates":[-73.9777,40.7519]},"properties":{"station_id":" 519","station_name":"Pershing Square N","total_rides":"45840","median_trip_duration":"10","median_age":"43"}},{"type":"Feature","geometry":{"type":"Point","coordinates":[-73.9765,40.7599]},"properties":{"station_id":" 520","station_name":"W 52 St & 5 Ave","total_rides":"11287","median_trip_duration":"11","median_age":"42"}},{"type":"Feature","geometry":{"type":"Point","coordinates":[-73.9721,40.7572]},"properties":{"station_id":" 522","station_name":"E 51 St & Lexington Ave","total_rides":"12736","median_trip_duration":"12","median_age":"40"}},{"type":"Feature","geometry":{"type":"Point","coordinates":[-73.9914,40.7547]},"properties":{"station_id":" 523","station_name":"W 38 St & 8 Ave","total_rides":"21893","median_trip_duration":"10","median_age":"41"}},{"type":"Feature","geometry":{"type":"Point","coordinates":[-73.9832,40.7553]},"properties":{"station_id":" 524","station_name":"W 43 St & 6 Ave","total_rides":"15232","median_trip_duration":"10","median_age":"41"}},{"type":"Feature","geometry":{"type":"Point","coordinates":[-74.0021,40.7559]},"properties":{"station_id":" 525","station_name":"W 34 St & 11 Ave","total_rides":" 8245","median_trip_duration":"16","median_age":"41"}},{"type":"Feature","geometry":{"type":"Point","coordinates":[-73.9849,40.7477]},"properties":{"station_id":" 526","station_name":"E 33 St & 5 Ave","total_rides":"10790","median_trip_duration":" 8","median_age":"40"}},{"type":"Feature","geometry":{"type":"Point","coordinates":[-73.9744,40.7432]},"properties":{"station_id":" 527","station_name":"E 33 St & 1 Ave","total_rides":"14696","median_trip_duration":"10","median_age":"37"}},{"type":"Feature","geometry":{"type":"Point","coordinates":[-73.9771,40.7429]},"properties":{"station_id":" 528","station_name":"2 Ave & E 31 St","total_rides":"27253","median_trip_duration":"10","median_age":"37"}},{"type":"Feature","geometry":{"type":"Point","coordinates":[-73.991,40.7576]},"properties":{"station_id":" 529","station_name":"W 42 St & 8 Ave","total_rides":"14753","median_trip_duration":"10","median_age":"42"}},{"type":"Feature","geometry":{"type":"Point","coordinates":[-73.9927,40.7189]},"properties":{"station_id":" 531","station_name":"Forsyth St & Broome St","total_rides":"16375","median_trip_duration":"10","median_age":"37"}},{"type":"Feature","geometry":{"type":"Point","coordinates":[-73.9609,40.7105]},"properties":{"station_id":" 532","station_name":"S 5 Pl & S 4 St","total_rides":"10577","median_trip_duration":"19","median_age":"35"}},{"type":"Feature","geometry":{"type":"Point","coordinates":[-73.9872,40.753]},"properties":{"station_id":" 533","station_name":"Broadway & W 39 St","total_rides":"12553","median_trip_duration":"10","median_age":"40"}},{"type":"Feature","geometry":{"type":"Point","coordinates":[-74.0127,40.7026]},"properties":{"station_id":" 534","station_name":"Water - Whitehall Plaza","total_rides":" 7500","median_trip_duration":"15","median_age":"40"}},{"type":"Feature","geometry":{"type":"Point","coordinates":[-73.9754,40.7414]},"properties":{"station_id":" 536","station_name":"1 Ave & E 30 St","total_rides":"15922","median_trip_duration":"10","median_age":"39"}},{"type":"Feature","geometry":{"type":"Point","coordinates":[-73.9841,40.7403]},"properties":{"station_id":" 537","station_name":"Lexington Ave & E 24 St","total_rides":"22834","median_trip_duration":" 9","median_age":"36"}},{"type":"Feature","geometry":{"type":"Point","coordinates":[-73.9602,40.7154]},"properties":{"station_id":" 539","station_name":"Metropolitan Ave & Bedford Ave","total_rides":"11244","median_trip_duration":"20","median_age":"36"}},{"type":"Feature","geometry":{"type":"Point","coordinates":[-73.9832,40.7415]},"properties":{"station_id":" 540","station_name":"Lexington Ave & E 26 St","total_rides":"22312","median_trip_duration":" 9","median_age":"38"}},{"type":"Feature","geometry":{"type":"Point","coordinates":[-73.9781,40.7365]},"properties":{"station_id":" 545","station_name":"E 23 St & 1 Ave","total_rides":"18291","median_trip_duration":"10","median_age":"38"}},{"type":"Feature","geometry":{"type":"Point","coordinates":[-73.983,40.7445]},"properties":{"station_id":" 546","station_name":"E 30 St & Park Ave S","total_rides":"17866","median_trip_duration":" 9","median_age":"39"}},{"type":"Feature","geometry":{"type":"Point","coordinates":[-73.9894,40.7026]},"properties":{"station_id":"2000","station_name":"Front St & Washington St","total_rides":" 9649","median_trip_duration":"15","median_age":"39"}},{"type":"Feature","geometry":{"type":"Point","coordinates":[-73.9733,40.6989]},"properties":{"station_id":"2001","station_name":"7 Ave & Farragut St","total_rides":"  940","median_trip_duration":" 9","median_age":"40"}},{"type":"Feature","geometry":{"type":"Point","coordinates":[-73.9632,40.7169]},"properties":{"station_id":"2002","station_name":"Wythe Ave & Metropolitan Ave","total_rides":" 8893","median_trip_duration":"21","median_age":"37"}},{"type":"Feature","geometry":{"type":"Point","coordinates":[-73.9802,40.7342]},"properties":{"station_id":"2003","station_name":"1 Ave & E 18 St","total_rides":"15354","median_trip_duration":"10","median_age":"35"}},{"type":"Feature","geometry":{"type":"Point","coordinates":[-73.971,40.7053]},"properties":{"station_id":"2005","station_name":"Railroad Ave & Kay Ave","total_rides":"  384","median_trip_duration":"14","median_age":"37"}},{"type":"Feature","geometry":{"type":"Point","coordinates":[-73.9763,40.7659]},"properties":{"station_id":"2006","station_name":"Central Park S & 6 Ave","total_rides":"21707","median_trip_duration":"25","median_age":"39"}},{"type":"Feature","geometry":{"type":"Point","coordinates":[-74.0168,40.7057]},"properties":{"station_id":"2008","station_name":"Little West St & 1 Pl","total_rides":" 8583","median_trip_duration":"16","median_age":"41"}},{"type":"Feature","geometry":{"type":"Point","coordinates":[-73.9968,40.7112]},"properties":{"station_id":"2009","station_name":"Catherine St & Monroe St","total_rides":" 5949","median_trip_duration":" 9","median_age":"39"}},{"type":"Feature","geometry":{"type":"Point","coordinates":[-74.0024,40.7216]},"properties":{"station_id":"2010","station_name":"Grand St & Greene St","total_rides":"11644","median_trip_duration":"11","median_age":"39"}},{"type":"Feature","geometry":{"type":"Point","coordinates":[-73.9768,40.7394]},"properties":{"station_id":"2012","station_name":"E 27 St & 1 Ave","total_rides":" 7934","median_trip_duration":"10","median_age":"38"}},{"type":"Feature","geometry":{"type":"Point","coordinates":[-73.9886,40.7593]},"properties":{"station_id":"2021","station_name":"W 45 St & 8 Ave","total_rides":"18563","median_trip_duration":"10","median_age":"39"}},{"type":"Feature","geometry":{"type":"Point","coordinates":[-73.9592,40.7585]},"properties":{"station_id":"2022","station_name":"E 59 St & Sutton Pl","total_rides":" 8234","median_trip_duration":"16","median_age":"40"}},{"type":"Feature","geometry":{"type":"Point","coordinates":[-73.9703,40.7597]},"properties":{"station_id":"2023","station_name":"E 55 St & Lexington Ave","total_rides":" 5987","median_trip_duration":"13","median_age":"41"}},{"type":"Feature","geometry":{"type":"Point","coordinates":[-74.0158,40.7115]},"properties":{"station_id":"3002","station_name":"South End Ave & Liberty St","total_rides":"16922","median_trip_duration":"13","median_age":"40"}}]}