station_id,station_name,station_lat,station_long,total_rides
72,W 52 St & 11 Ave,40.76727216,-73.99392888,84997
79,Franklin St & W Broadway,40.71911552,-74.00666661,71926
82,St James Pl & Pearl St,40.71117416,-74.00016545,33097
83,Atlantic Ave & Fort Greene Pl,40.68382604,-73.97632328,37970
116,W 17 St & 8 Ave,40.74177603,-74.00149746,144041
119,Park Ave & St Edwards St,40.69608941,-73.97803415,6362
120,Lexington Ave & Classon Ave,40.68676793,-73.95928168,15855
127,Barrow St & Hudson St,40.73172428,-74.00674436,154468
128,MacDougal St & Prince St,40.72710258,-74.00297088,143343
143,Clinton St & Joralemon St,40.69239502,-73.99337909,30864
144,Nassau St & Navy St,40.69839895,-73.98068914,15652
146,Hudson St & Reade St,40.71625008,-74.0091059,66681
150,E 2 St & Avenue C,40.7208736,-73.98085795,61654
151,Cleveland Pl & Spring St,40.7218158,-73.99720307,135617
151,Cleveland Pl & Spring St,40.722103786686034,-73.99724900722504,76514
152,Warren St & Church St,40.71473993,-74.00910627,61007
153,E 40 St & 5 Ave,40.752062307,-73.9816324043,99377
153,E 40 St & 5 Ave,40.75206231,-73.9816324,8413
157,Henry St & Atlantic Ave,40.69089272,-73.99612349,39372
161,LaGuardia Pl & W 3 St,40.72917025,-73.99810231,133161
164,E 47 St & 2 Ave,40.75323098,-73.97032517,70809
167,E 39 St & 3 Ave,40.7489006,-73.97604882,111447
168,W 18 St & 6 Ave,40.73971301,-73.99456405,168831
173,Broadway & W 49 St,40.76064679,-73.98442659,81727
173,Broadway & W 49 St,40.76068327096592,-73.9845272898674,37231
174,E 25 St & 1 Ave,40.7381765,-73.97738662,86451
195,Liberty St & Broadway,40.70905623,-74.01043382,95139
212,W 16 St & The High Line,40.74334935,-74.00681753,102618
216,Columbia Heights & Cranberry St,40.70037867,-73.99548059,19632
217,Old Fulton St,40.70277159,-73.99383605,57642
223,W 13 St & 7 Ave,40.73781509,-73.99994661,92336
224,Spruce St & Nassau St,40.71146364,-74.00552427,60986
228,E 48 St & 3 Ave,40.7546011,-73.97187886,4046
228,E 48 St & 3 Ave,40.7546011026,-73.971878855,67355
229,Great Jones St,40.72743423,-73.99379025,135922
232,Cadman Plaza E & Tillary St,40.69597683,-73.99014892,31358
236,St Marks Pl & 2 Ave,40.7284186,-73.98713956,134129
237,E 11 St & 2 Ave,40.73047309,-73.98672378,134000
238,Bank St & Washington St,40.7361967,-74.00859207,77049
239,Willoughby St & Fleet St,40.69196566,-73.9813018,31350
241,DeKalb Ave & S Portland Ave,40.68981035,-73.97493121,24304
242,Carlton Ave & Flushing Ave,40.697787,-73.973736,10358
242,Flushing Ave & Carlton Ave,40.69788349,-73.97350332,11242
243,Fulton St & Rockwell Pl,40.687979,-73.978474,11728
243,Fulton St & Rockwell Pl,40.688226,-73.979382,17314
244,Willoughby Ave & Hall St,40.69196035,-73.96536851,25976
245,Myrtle Ave & St Edwards St,40.69327018,-73.97703874,13105
247,Perry St & Bleecker St,40.73535398,-74.00483091,72604
248,Laight St & Hudson St,40.72185379,-74.00771779,26385
249,Harrison St & Hudson St,40.71870987,-74.0090009,47496
251,Mott St & Prince St,40.72317958,-73.99480012,131467
252,MacDougal St & Washington Sq,40.73226398,-73.99852205,88029
253,W 13 St & 5 Ave,40.73543934,-73.99453948,68389
254,W 11 St & 6 Ave,40.73532427,-73.99800419,64217
257,Lispenard St & Broadway,40.71939226,-74.00247214,76295
258,DeKalb Ave & Vanderbilt Ave,40.68940747,-73.96885458,28531
259,South St & Whitehall St,40.70122128,-74.01234218,64312
260,Broad St & Bridge St,40.70365182,-74.01167797,35837
261,Johnson St & Gold St,40.69474881,-73.98362464,30201
262,Washington Park,40.6917823,-73.9737299,12314
262,Washington Park,40.69178232,-73.97372989,10203
264,Maiden Ln & Pearl St,40.70706456,-74.00731853,65023
265,Stanton St & Chrystie St,40.72229346,-73.99147535,95814
266,Avenue D & E 8 St,40.72368361,-73.97574813,30598
267,Broadway & W 36 St,40.75097711,-73.98765428,66375
268,Howard St & Centre St,40.71910537,-73.99973337,92647
270,Adelphi St & Myrtle Ave,40.69308257,-73.97178913,36005
274,Lafayette Ave & Fort Greene Pl,40.68691865,-73.976682,27924
275,Washington Ave & Greene Ave,40.68650065,-73.96563307,15170
276,Duane St & Greenwich St,40.71748752,-74.0104554,56817
278,Concord St & Bridge St,40.69766564,-73.98476437,17063
279,Peck Slip & Front St,40.707873,-74.00167,50770
279,Peck Slip & Front Street,40.707873,-74.00167,8784
279,Sands St & Gold St,40.69986937,-73.98271933,3431
280,E 10 St & 5 Ave,40.73331967,-73.99510132,89795
281,Grand Army Plaza & Central Park S,40.7643971,-73.97371465,151177
282,Kent Ave & S 11 St,40.707644944175705,-73.96841526031494,9193
282,Kent Ave & S 11 St,40.70827295,-73.96834101,18277
284,Greenwich Ave & 8 Ave,40.73901691,-74.00263761,11820
284,Greenwich Ave & 8 Ave,40.7390169121,-74.0026376103,187715
285,Broadway & E 14 St,40.73454567,-73.99074142,223667
289,Monroe St & Classon Ave,40.6845683,-73.95881081,8963
291,Madison St & Montgomery St,40.713126,-73.984844,40108
293,Lafayette St & E 8 St,40.73028666,-73.9907647,256704
295,Pike St & E Broadway,40.71406667,-73.99293911,62231
296,Division St & Bowery,40.71413089,-73.9970468,69348
297,E 15 St & 3 Ave,40.734232,-73.986923,116506
301,E 2 St & Avenue B,40.72217444,-73.98368779,105318
302,Avenue D & E 3 St,40.72082834,-73.97793172,42486
303,Mercer St & Spring St,40.72362738,-73.99949601,84264
304,Broadway & Battery Pl,40.70463334,-74.01361706,96688
305,E 58 St & 3 Ave,40.76095756,-73.96724467,109603
306,Cliff St & Fulton St,40.70823502,-74.00530063,74026
307,Canal St & Rutgers St,40.71427487,-73.98990025,106683
308,St James Pl & Oliver St,40.71307916,-73.99851193,53440
309,Murray St & West St,40.7149787,-74.013012,64379
310,State St & Smith St,40.68926942,-73.98912867,48666
311,Norfolk St & Broome St,40.7172274,-73.98802084,69894
312,Allen St & E Houston St,40.722055,-73.989111,89927
312,Allen St & Stanton St,40.722055,-73.989111,24305
313,Washington Ave & Park Ave,40.69610226,-73.96751037,27498
314,Cadman Plaza West & Montague St,40.69383,-73.990539,23074
314,Montague St & Clinton St,40.69424674,-73.99215922,5860
315,South St & Gouverneur Ln,40.70355377,-74.00670227,81149
316,Fulton St & William St,40.70955958,-74.00653609,65626
317,E 6 St & Avenue B,40.72453734,-73.98185424,91610
319,Fulton St & Broadway,40.711066,-74.009447,24940
319,Park Pl & Church St,40.71336124,-74.00937622,30420
320,Church St & Leonard St,40.71743998,-74.00583475,12451
320,Leonard St & Church St,40.717571,-74.005549,47765
321,Cadman Plaza E & Red Cross Pl,40.69991755,-73.98971773,26788
322,Clinton St & Tillary St,40.696192,-73.991218,30951
323,Lawrence St & Willoughby St,40.69236178,-73.98631746,64134
324,DeKalb Ave & Hudson Ave,40.689888,-73.981013,46068
325,E 19 St & 3 Ave,40.73624527,-73.98473765,91646
326,E 11 St & 1 Ave,40.72953837,-73.98426726,111731
327,Vesey Pl & River Terrace,40.7153379,-74.01658354,176960
328,Watts St & Greenwich St,40.72405549,-74.00965965,78882
330,Reade St & Broadway,40.71450451,-74.00562789,61649
331,Pike St & Monroe St,40.71173107,-73.99193043,35796
332,Cherry St,40.71219906,-73.97948148,42787
334,W 20 St & 7 Ave,40.74238787,-73.99726235,123337
335,Washington Pl & Broadway,40.72903917,-73.99404649,105204
336,Sullivan St & Washington Sq,40.73047747,-73.99906065,106711
337,Old Slip & Front St,40.7037992,-74.00838676,46400
339,Avenue D & E 12 St,40.72580614,-73.97422494,20165
340,Madison St & Clinton St,40.71269042,-73.98776323,44850
341,Stanton St & Mangin St,40.71782143,-73.97628939,41124
342,Columbia St & Rivington St,40.71739973,-73.98016555,44544
343,Clinton Ave & Flushing Ave,40.69794,-73.96986848,17649
344,Monroe St & Bedford Ave,40.6851443,-73.95380904,16998
345,W 13 St & 6 Ave,40.73649403,-73.99704374,131649
346,Bank St & Hudson St,40.73652889,-74.00618026,93880
347,Greenwich St & W Houston St,40.728846,-74.008591,61307
347,W Houston St & Hudson St,40.72873888,-74.00748842,74130
348,W Broadway & Spring St,40.72490985,-74.00154702,122875
349,Rivington St & Ridge St,40.71850211,-73.98329859,47846
350,Clinton St & Grand St,40.71559509,-73.9870295,66953
351,Front St & Maiden Ln,40.70530954,-74.00612572,58252
353,S Portland Ave & Hanson Pl,40.68539567,-73.97431458,18531
354,Emerson Pl & Myrtle Ave,40.69363137,-73.96223558,19680
355,Bayard St & Baxter St,40.71602118,-73.99974372,82437
356,Bialystoker Pl & Delancey St,40.71622644,-73.98261206,55438
357,E 11 St & Broadway,40.73261787,-73.99158043,77508
358,Christopher St & Greenwich St,40.73291553,-74.00711384,173013
359,E 47 St & Park Ave,40.75510267,-73.97498696,127259
360,William St & Pine St,40.70717936,-74.00887308,59441
361,Allen St & Hester St,40.71605866,-73.99190759,102987
363,West Thames St,40.70834698,-74.01713445,107094
364,Lafayette Ave & Classon Ave,40.68900443,-73.96023854,19256
365,Fulton St & Grand Ave,40.68223166,-73.9614583,20625
366,Clinton Ave & Myrtle Ave,40.693261,-73.968896,44438
368,Carmine St & 6 Ave,40.73038599,-74.00214988,189917
369,Washington Pl & 6 Ave,40.73224119,-74.00026394,75841
372,Franklin Ave & Myrtle Ave,40.694528,-73.958089,9950
373,Willoughby Ave & Walworth St,40.69331716,-73.95381995,15646
376,John St & William St,40.70862144,-74.00722156,57353
377,6 Ave & Canal St,40.72243797,-74.00566443,72020
379,W 31 St & 7 Ave,40.749156,-73.9916,167416
380,W 4 St & 7 Ave S,40.73401143,-74.00293877,144342
382,University Pl & E 14 St,40.73492695,-73.99200509,186431
383,Greenwich Ave & Charles St,40.735238,-74.000271,100897
384,Fulton St & Washington Ave,40.683048,-73.964915,15003
384,Fulton St & Waverly Ave,40.68317813,-73.9659641,12689
385,E 55 St & 2 Ave,40.75797322,-73.96603308,58891
386,Centre St & Worth St,40.71494807,-74.00234482,69518
387,Centre St & Chambers St,40.71273266,-74.0046073,162009
388,W 26 St & 10 Ave,40.74971775,-74.00295035,5861
388,W 26 St & 10 Ave,40.749717753,-74.002950346,106157
389,Broadway & Berry St,40.71044554,-73.96525063,30730
390,Duffield St & Willoughby St,40.69221589,-73.9842844,22405
391,Clark St & Henry St,40.69760127,-73.99344559,48682
392,Jay St & Tech Pl,40.695065,-73.987167,34619
393,E 5 St & Avenue C,40.72299208,-73.97995466,54292
394,E 9 St & Avenue C,40.72521311,-73.97768752,87618
395,Bond St & Schermerhorn St,40.68807003,-73.98410637,28392
396,Lefferts Pl & Franklin Ave,40.68034242,-73.95576894,969
396,Lefferts Pl & Franklin Ave,40.680342423,-73.9557689392,19984
397,Fulton St & Clermont Ave,40.68415748,-73.96922273,17227
398,Atlantic Ave & Furman St,40.69165183,-73.9999786,37793
399,Lafayette Ave & St James Pl,40.68851534,-73.9647628,18869
400,Pitt St & Stanton St,40.71926081,-73.98178024,23400
401,Allen St & Rivington St,40.72019576,-73.98997825,115002
402,Broadway & E 22 St,40.7403432,-73.98955109,217710
403,E 2 St & 2 Ave,40.72502876,-73.99069656,70377
405,Washington St & Gansevoort St,40.739323,-74.008119,115919
406,Hicks St & Montague St,40.69512845,-73.99595065,37056
407,Henry St & Poplar St,40.700469,-73.991454,18243
408,Market St & Cherry St,40.71076228,-73.99400398,37895
409,DeKalb Ave & Skillman St,40.6906495,-73.95643107,13226
410,Suffolk St & Stanton St,40.72066442,-73.98517977,113021
411,E 6 St & Avenue D,40.72228087,-73.97668709,43953
412,Forsyth St & Canal St,40.7158155,-73.99422366,75552
414,Pearl St & Anchorage Pl,40.70281858,-73.98765762,33964
415,Pearl St & Hanover Square,40.7047177,-74.00926027,65113
416,Cumberland St & Lafayette Ave,40.68753406,-73.97265183,25990
417,Barclay St & Church St,40.71291224,-74.01020234,143921
418,Front St & Gold St,40.70224,-73.982578,20287
419,Carlton Ave & Park Ave,40.69580705,-73.97355569,15035
420,Clermont Ave & Lafayette Ave,40.68764484,-73.96968902,17916
421,Clermont Ave & Park Ave,40.69573398,-73.97129668,14232
422,W 59 St & 10 Ave,40.770513,-73.988038,67287
423,W 54 St & 9 Ave,40.76584941,-73.98690506,53450
426,West St & Chambers St,40.71754834,-74.01322069,237676
427,Bus Slip & State St,40.701907,-74.013942,49354
427,State St,40.70251526,-74.01427023,15419
428,E 3 St & 1 Ave,40.72467721,-73.98783413,112234
430,York St & Jay St,40.7014851,-73.98656928,62345
432,E 7 St & Avenue A,40.72621788,-73.98379855,129181
433,E 13 St & Avenue A,40.72955361,-73.98057249,115042
434,9 Ave & W 18 St,40.74317449,-74.00366443,104733
435,W 21 St & 6 Ave,40.74173969,-73.99415556,249726
436,Hancock St & Bedford Ave,40.68216564,-73.95399026,11695
437,Macon St & Nostrand Ave,40.6809833854,-73.9500479759,18725
437,Macon St & Nostrand Ave,40.68098339,-73.95004798,865
438,St Marks Pl & 1 Ave,40.72779126,-73.98564945,96693
439,E 4 St & 2 Ave,40.7262807,-73.98978041,103727
440,E 45 St & 3 Ave,40.75255434,-73.97282625,69772
441,E 52 St & 2 Ave,40.756014,-73.967416,57707
442,W 27 St & 7 Ave,40.746647,-73.993915,131082
443,Bedford Ave & S 9 St,40.70853074,-73.96408963,4726
443,Bedford Ave & S 9th St,40.70853074,-73.96408963,4850
444,Broadway & W 24 St,40.7423543,-73.98915076,191026
445,E 10 St & Avenue A,40.72740794,-73.98142006,140008
446,W 24 St & 7 Ave,40.74487634,-73.99529885,148751
447,8 Ave & W 52 St,40.76370739,-73.9851615,105976
448,W 37 St & 10 Ave,40.75660359,-73.9979009,95069
449,W 52 St & 9 Ave,40.76461837,-73.98789473,66058
450,W 49 St & 8 Ave,40.76227205,-73.98788205,108077
453,W 22 St & 8 Ave,40.74475148,-73.99915362,126580
454,E 51 St & 1 Ave,40.75455731,-73.96592976,47388
455,1 Ave & E 44 St,40.75001986,-73.96905301,68593
456,E 53 St & Madison Ave,40.7597108,-73.97402311,59183
457,Broadway & W 58 St,40.76695317,-73.98169333,139910
458,11 Ave & W 27 St,40.751396,-74.005226,118537
459,W 20 St & 11 Ave,40.746745,-74.007756,191597
460,S 4 St & Wythe Ave,40.71285887,-73.96590294,37039
461,E 20 St & 2 Ave,40.73587678,-73.98205027,127330
462,W 22 St & 10 Ave,40.74691959,-74.00451887,156344
465,Broadway & W 41 St,40.75513557,-73.98658032,122982
466,W 25 St & 6 Ave,40.74395411,-73.99144871,129854
467,Dean St & 4 Ave,40.68312489,-73.97895137,41902
468,Broadway & W 55 St,40.7652654,-73.98192338,100968
469,Broadway & W 53 St,40.76344058,-73.98268129,81475
470,W 20 St & 8 Ave,40.74345335,-74.00004031,99782
471,Grand St & Havemeyer St,40.71286844,-73.95698119,31815
472,E 32 St & Park Ave,40.7457121,-73.98194829,152908
473,Rivington St & Chrystie St,40.72110063,-73.9919254,72368
474,5 Ave & E 29 St,40.7451677,-73.98683077,119101
476,E 31 St & 3 Ave,40.74394314,-73.97966069,112943
477,W 41 St & 8 Ave,40.75640548,-73.9900262,181816
478,11 Ave & W 41 St,40.76030096,-73.99884222,99953
479,9 Ave & W 45 St,40.76019252,-73.9912551,120542
480,W 53 St & 10 Ave,40.76669671,-73.99061728,74118
481,S 3 St & Bedford Ave,40.71260486,-73.96264403,32773
482,W 15 St & 7 Ave,40.73935542,-73.99931783,124914
483,E 12 St & 3 Ave,40.73223272,-73.98889957,131788
484,W 44 St & 5 Ave,40.75500254,-73.98014437,95964
485,W 37 St & 5 Ave,40.75038009,-73.98338988,84614
486,Broadway & W 29 St,40.7462009,-73.98855723,120683
487,E 20 St & FDR Drive,40.73314259,-73.97573881,97794
488,W 39 St & 9 Ave,40.75645824,-73.99372222,132510
490,8 Ave & W 33 St,40.751551,-73.993934,203932
491,E 24 St & Park Ave S,40.74096374,-73.98602213,97720
492,W 33 St & 7 Ave,40.75019995,-73.99093085,140563
494,W 26 St & 8 Ave,40.74734825,-73.99723551,131482
495,W 47 St & 10 Ave,40.76269882,-73.99301222,85921
496,E 16 St & 5 Ave,40.73726186,-73.99238967,130116
497,E 17 St & Broadway,40.73704984,-73.99009296,266656
498,Broadway & W 32 St,40.74854862,-73.98808416,126604
499,Broadway & W 60 St,40.76915505,-73.98191841,179825
500,Broadway & W 51 St,40.76228826,-73.98336183,87862
501,FDR Drive & E 35 St,40.744219,-73.97121214,89071
502,Henry St & Grand St,40.714215,-73.981346,63822
503,E 20 St & Park Ave,40.73827428,-73.98751968,99426
504,1 Ave & E 15 St,40.73221853,-73.98165557,144843
504,1 Ave & E 16 St,40.73221853,-73.98165557,12020
505,6 Ave & W 33 St,40.74901271,-73.98848395,134744
507,E 25 St & 2 Ave,40.73912601,-73.97973776,126141
508,W 46 St & 11 Ave,40.76341379,-73.99667444,77097
509,9 Ave & W 22 St,40.7454973,-74.00197139,138622
511,E 14 St & Avenue B,40.72938685,-73.97772429,127541
513,W 56 St & 10 Ave,40.768254,-73.988639,65960
514,12 Ave & W 40 St,40.76087502,-74.00277668,155355
515,W 43 St & 10 Ave,40.76009437,-73.99461843,106609
516,E 47 St & 1 Ave,40.75206862,-73.96784384,39844
517,E 41 St & Madison Ave,40.752141,-73.979782,16762
517,Pershing Square S,40.75149263,-73.97798848,28907
517,Pershing Square South,40.751581,-73.97791,86960
518,E 39 St & 2 Ave,40.74780373,-73.9734419,144392
519,E 42 St & Vanderbilt Ave,40.752416,-73.97837,50382
519,Pershing Square N,40.75188406,-73.97770164,51669
519,Pershing Square North,40.751873,-73.977706,228582
520,W 52 St & 5 Ave,40.75992262,-73.97648516,94071
522,E 51 St & Lexington Ave,40.75714758,-73.97207836,64680
523,W 38 St & 8 Ave,40.75466591,-73.99138152,160520
524,W 43 St & 6 Ave,40.75527307,-73.98316936,65251
525,W 34 St & 11 Ave,40.75594159,-74.0021163,65458
526,E 33 St & 5 Ave,40.74765947,-73.98490707,100721
527,E 33 St & 1 Ave,40.74315566,-73.97434726,29338
527,E 33 St & 2 Ave,40.744023,-73.976056,85286
528,2 Ave & E 31 St,40.74290902,-73.97706058,134547
529,W 42 St & 8 Ave,40.7575699,-73.99098507,121033
530,11 Ave & W 59 St,40.771522,-73.990541,72575
531,Forsyth St & Broome St,40.71893904,-73.99266288,108659
532,S 5 Pl & S 4 St,40.710451,-73.960876,77953
533,Broadway & W 39 St,40.75299641,-73.98721619,85293
534,Water - Whitehall Plaza,40.70255065,-74.0127234,45730
536,1 Ave & E 30 St,40.74144387,-73.97536082,115043
537,Lexington Ave & E 24 St,40.74025878,-73.98409214,157248
539,Metropolitan Ave & Bedford Ave,40.71534825,-73.96024116,61491
540,Lexington Ave & E 26 St,40.74147286,-73.98320928,61012
540,Lexington Ave & E 29 St,40.74311555376486,-73.98215353488922,47217
545,E 23 St & 1 Ave,40.736502,-73.97809472,120965
546,E 30 St & Park Ave S,40.74444921,-73.98303529,116703
2000,Front St & Washington St,40.70255088,-73.98940236,52301
2001,7 Ave & Farragut St,40.69892054,-73.97332996,1373
2001,Sands St & Navy St,40.699773,-73.979927,4824
2002,Wythe Ave & Metropolitan Ave,40.716887,-73.963198,61569
2003,1 Ave & E 18 St,40.73381219,-73.98054421,2730
2003,1 Ave & E 18 St,40.733812191966315,-73.98054420948029,47145
2003,1 Ave & E 18 St,40.73416059,-73.98024289,38062
2005,Railroad Ave & Kay Ave,40.70531194,-73.97100056,2015
2006,Central Park S & 6 Ave,40.76590936,-73.97634151,163725
2008,Little West St & 1 Pl,40.70569254,-74.01677685,89598
2009,Catherine St & Monroe St,40.71117444,-73.99682619,45244
2010,Grand St & Greene St,40.72165481,-74.00234737,78855
2012,E 27 St & 1 Ave,40.739445,-73.976806,76176
2021,W 45 St & 8 Ave,40.75929124,-73.98859651,98367
2022,E 59 St & Sutton Pl,40.75849116,-73.95920622,27966
2022,E 60 St & York Ave,40.759107,-73.959223,15845
2023,E 55 St & Lexington Ave,40.75968085,-73.97031366,43827
3002,South End Ave & Liberty St,40.711512,-74.015756,153040
3016,Kent Ave & N 7 St,40.72036775298455,-73.96165072917938,20288
3016,Kent Ave & N 7 St,40.72072553412595,-73.96125912666321,391
3016,Mobile 01,40.771051856415305,-73.9643383026123,965
3041,Kingston Ave & Herkimer St,40.67890679,-73.94142771,2523
3042,Fulton St & Utica Ave,40.6794268,-73.9298911,4170
3043,Lewis Ave & Decatur St,40.6814598,-73.934903,2205
3044,Albany Ave & Fulton St,40.6800105,-73.938475,1638
3046,Marcus Garvey Blvd & Macon St,40.682601,-73.938037,3118
3047,Halsey St & Tompkins Ave,40.6823687,-73.944118,4268
3048,Putnam Ave & Nostrand Ave,40.68402,-73.94977,2787
3049,Cambridge Pl & Gates Ave,40.68488,-73.96304,3632
3050,Putnam Ave & Throop Ave,40.6851532,-73.94111,3967
3052,Lewis Ave & Madison St,40.686312,-73.935775,5968
3053,Marcy Ave & Lafayette Ave,40.6900815,-73.947915,2343
3054,Greene Ave & Throop Ave,40.6894932,-73.942061,3369
3055,Greene Ave & Nostrand Ave,40.6883337,-73.950916,3838
3056,Kosciuszko St & Nostrand Ave,40.69072549,-73.95133465,3183
3057,Kosciuszko St & Tompkins Ave,40.69128258,-73.9452416,3991
3058,Lewis Ave & Kosciuszko St,40.69237074,-73.93705428,3928
3059,Pulaski St & Marcus Garvey Blvd,40.6933982,-73.939877,1799
3060,Willoughby Ave & Tompkins Ave,40.69425403,-73.94626915,3659
3061,Throop Ave & Myrtle Ave,40.69622937,-73.94371094,1860
3062,Myrtle Ave & Marcy Ave,40.69539817,-73.94954908,4139
3063,Nostrand Ave & Myrtle Ave,40.69527008,-73.95238108,2423
3064,Myrtle Ave & Lewis Ave,40.69681963,-73.93756926,8331
3065,Union Ave & Wallabout St,40.70029511,-73.95032283,2886
3066,Tompkins Ave & Hopkins St,40.69957608,-73.94708417,3795
3067,Broadway & Whipple St,40.7016657,-73.9437303,4343
3068,Humboldt St & Varet St,40.7031724,-73.940636,5008
3069,Lorimer St & Broadway,40.70411791,-73.94818595,3409
3070,McKibbin St & Manhattan Ave,40.70510918,-73.94407279,3166
3071,Boerum St & Broadway,40.70538077,-73.94976519,4408
3072,Leonard St & Boerum St,40.70583339,-73.94644578,3694
3073,Division Ave & Hooper St,40.70691254,-73.95441667,4872
3074,Montrose Ave & Bushwick Ave,40.70767788,-73.94016171,11293
3075,Division Ave & Marcy Ave,40.70708701,-73.95796783,2514
3076,Scholes St & Manhattan Ave,40.70870368,-73.9448625,5016
3077,Stagg St & Union Ave,40.70877084,-73.95095259,8390
3078,Broadway & Roebling St,40.70925562,-73.95982218,8631
3080,S 4 St & Rodney St,40.70934,-73.95608,5452
3081,Graham Ave & Grand St,40.711863,-73.944024,5936
3082,Hope St & Union Ave,40.71167351,-73.95141312,9307
3083,Bushwick Ave & Powers St,40.71247661,-73.94100005,6452
3085,Roebling St & N 4 St,40.71469,-73.95739,7495
3086,Graham Ave & Conselyea St,40.715143,-73.944507,13019
3087,Metropolitan Ave & Meeker Ave,40.71413311,-73.95234386,13129
3088,Union Ave & Jackson St,40.7160751,-73.952029,6440
3090,N 8 St & Driggs Ave,40.71774592,-73.95600096,26343
3091,Frost St & Meeker St,40.71764,-73.94882,4669
3092,Berry St & N 8 St,40.7190095,-73.95852515,18098
3093,N 6 St & Bedford Ave,40.71745169,-73.95850939,30020
3094,Graham Ave & Withers St,40.7169811,-73.94485918,5605
3095,Graham Ave & Herbert St,40.71929301,-73.94500379,4730
3096,Union Ave & N 12 St,40.71924,-73.95242,9328
3100,Nassau Ave & Newell St,40.724812564400175,-73.94752621650696,5421
3101,N 12 St & Bedford Ave,40.72079821,-73.95484712,11235
3102,Driggs Ave & Lorimer St,40.72179134,-73.9504154,9064
3103,N 11 St & Wythe Ave,40.72153267,-73.95782357,10683
3105,N 15 St & Wythe Ave,40.724055,-73.955736,3945
3106,Driggs Ave & N Henry St,40.72325,-73.94308,11393
3107,Bedford Ave & Nassau Ave,40.72311651,-73.95212324,20416
3108,Nassau Ave & Russell St,40.72557,-73.94434,14426
3109,Banker St & Meserole Ave,40.72606,-73.95621,9517
3110,Meserole Ave & Manhattan Ave,40.72708584,-73.95299117,12410
3112,Milton St & Franklin St,40.72906,-73.95779,18889
3113,Greenpoint Ave & Manhattan Ave,40.73026,-73.95394,12116
3115,India St & Manhattan Ave,40.73232194,-73.9550858,10778
3116,Huron St & Franklin St,40.73266,-73.95826,9670
3117,Franklin St & Dupont St,40.73564,-73.95866,7705
3118,McGuinness Blvd & Eagle St,40.73555,-73.95284,9078
3119,Vernon Blvd & 50 Ave,40.74232744,-73.95411749,21271
3120,Center Blvd & Borden Ave,40.74161,-73.96044,3771
3120,Center BlvdÂ & Borden Ave,40.74161,-73.96044,1702
3121,Jackson Ave & 46 Rd,40.74524768,-73.94733276,4742
3122,48 Ave & 5 St,40.744363287066875,-73.9558732509613,4921
3123,31 St & Thomson Ave,40.74469738,-73.93540375,2254
3124,46 Ave & 5 St,40.74731,-73.95451,14085
3125,45 Rd & 11 St,40.74708586,-73.94977234,8445
3126,44 Dr & Jackson Ave,40.74718234,-73.9432635,9798
3127,9 St & 44 Rd,40.74966,-73.9521,3117
3128,21 St & 43 Ave,40.75052534,-73.94594845,2148
3129,Queens Plaza North & Crescent St,40.75110165,-73.94073717,18046
3130,21 St & Queens Plaza North,40.75325964,-73.94335788,306
3131,E 68 St & 3 Ave,40.76712840349542,-73.96224617958069,5451
3132,E 59 St & Madison Ave,40.76350532,-73.97109243,22027
3134,3 Ave & E 62 St,40.76312584,-73.96526895,19916
3135,E 75 St & 3 Ave,40.77112927,-73.95772297,21590
3136,5 Ave & E 63 St,40.76650452,-73.97147595,13201
3137,5 Ave & E 73 St,40.77282817,-73.96685276,41448
3139,E 72 St & Park Ave,40.77118287540658,-73.96409422159195,16199
3139,E 72 St & Park Ave,40.77122923,-73.96432627,3656
3140,1 Ave & E 78 St,40.77140426,-73.9535166,33703
3141,1 Ave & E 68 St,40.76500525,-73.95818491,58186
3142,1 Ave & E 62 St,40.7612274,-73.96094022,33450
3143,5 Ave & E 78 St,40.77682863439968,-73.96388769149779,41247
3144,E 81 St & Park Ave,40.77677702,-73.9590097,9910
3145,E 84 St & Park Ave,40.77862688,-73.95772073,32093
3146,E 81 St & 3 Ave,40.77573034,-73.9567526,14122
3147,E 85 St & 3 Ave,40.77801203,-73.95407149,35295
3148,E 84 St & 1 Ave,40.77565541,-73.95068615,19038
3150,E 85 St & York Ave,40.77536905,-73.94803392,19561
3151,E 81 St & York Ave,40.7728384,-73.94989233,13635
3152,3 Ave & E 71 St,40.76873687,-73.96119945,3919
3155,Lexington Ave & E 63 St,40.76440023,-73.96648977,19083
3156,E 72 St & York Ave,40.76663814,-73.95348296,36007
3157,East End Ave & E 86 St,40.77518615,-73.94446054,9047
3158,W 63 St & Broadway,40.77163851,-73.98261428,32882
3159,W 67 St & Broadway,40.77492513,-73.98266566,30354
3160,Central Park West & W 76 St,40.77896784,-73.97374737,26583
3161,W 76 St & Columbus Ave,40.7801839724239,-73.97728532552719,17892
3162,W 78 St & Broadway,40.78339981,-73.98093133,17352
3163,Central Park West & W 68 St,40.7734066,-73.97782542,33309
3164,Columbus Ave & W 72 St,40.7770575,-73.97898475,36765
3165,Central Park West & W 72 St,40.77575319,-73.97603963,4579
3165,Central Park West & W 72 St,40.77579376683666,-73.9762057363987,37988
3166,Riverside Dr & W 72 St,40.78057799010334,-73.98562431335449,19968
3167,Amsterdam Ave & W 73 St,40.77966809007312,-73.98093044757842,35590
3168,Central Park West & W 85 St,40.78472675,-73.96961715,41703
3169,Riverside Dr & W 82 St,40.78720869,-73.98128127,21998
3170,W 84 St & Columbus Ave,40.78499979,-73.97283406,24878
3171,Amsterdam Ave & W 82 St,40.78524672,-73.97667321,19277
3172,W 74 St & Columbus Ave,40.7785669,-73.97754961,15672
3173,Riverside Blvd & W 67 St,40.777507027547976,-73.98888587951659,25050
3175,W 70 St & Amsterdam Ave,40.77748046,-73.98288594,28137
3176,W 64 St & West End Ave,40.77452835,-73.98753759,19660
3177,W 84 St & Broadway,40.7867947,-73.977112,32351
3178,Riverside Dr & W 78 St,40.78414472,-73.98362492,18118
3179,Park Ave & Marcus Garvey Blvd,40.698617,-73.941342,2098
3180,Brooklyn Bridge Park - Pier 2,40.69878,-73.99712,10640
3182,Yankee Ferry Terminal,40.686931,-74.016966,7644
3221,47 Ave & 31 St,40.743,-73.93561,2728
3223,E 55 St & 3 Ave,40.758996559605116,-73.96865397691727,25523
3224,W 13 St & Hudson St,40.73997354103409,-74.00513872504234,48396
3226,W 82 St & Central Park West,40.78275,-73.97137,17352
3231,E 67 St & Park Ave,40.76780080148132,-73.96592080593109,18535
3232,Bond St & Fulton St,40.68962188790333,-73.98304268717766,5515
3233,E 48 St & 5 Ave,40.75724567911726,-73.97805914282799,34674
3235,E 41 St & Madison Ave,40.752165280621966,-73.97992193698882,21214
3236,PABT Valet,40.75898481399634,-73.99379968643188,6129
3236,W 42 St & Dyer Ave,40.75898481399634,-73.99379968643188,27369
3238,E 80 St & 2 Ave,40.77391390238118,-73.9543953537941,9402
3241,Monroe St & Tompkins Ave,40.686203,-73.944694,2989
3242,Schermerhorn St & Court St,40.69102925677968,-73.99183362722397,10187
3243,E 58 St & 1 Ave,40.75892386377695,-73.96226227283478,8488
3244,University Pl & E 8 St,40.73143724085228,-73.99490341544151,25033
3249,Verona Pl & Fulton St,40.6803560840434,-73.9476791024208,1589
3254,Soissons Landing,40.69231660719192,-74.01486575603485,5844
3255,8 Ave & W 31 St,40.7505853470215,-73.9946848154068,29217
3256,Pier 40 - Hudson River Park,40.7277140777778,-74.01129573583603,20129
3258,W 27 St & 10 Ave,40.75018156325683,-74.00218427181244,8512
3259,9 Ave & W 28 St,40.74937024193277,-73.99923384189606,10694
3260,Mercer St & Bleecker St,40.72706363348306,-73.99662137031554,15187
3263,Cooper Square & E 7 St,40.72923649910006,-73.99086803197861,28287
3282,5 Ave & E 88 St,40.78307,-73.95939,9261
3283,W 89 St & Columbus Ave,40.7882213,-73.97041561,1187
3284,E 88 St & Park Ave,40.781410700190015,-73.95595908164978,1792
3285,W 87 St  & Amsterdam Ave,40.78839,-73.9747,3269
3286,E 89 St & 3 Ave,40.7806284,-73.9521667,3213
3288,E 88 St & 1 Ave,40.778301,-73.9488134,3166
3289,W 90 St & Amsterdam Ave,40.79017948095081,-73.97288918495178,2404
3290,E 89 St & York Ave,40.7779453,-73.946041,2220
3292,5 Ave & E 93 St,40.7857851,-73.957481,3555
3293,W 92 St & Broadway,40.7921,-73.9739,1362
3294,E 91 St & Park Ave,40.7835016,-73.955327,2046
3295,Central Park W & W 96 St,40.79127,-73.964839,5766
3297,6 St & 7 Ave,40.6686627,-73.97988067,738
3298,Warren St & Court St,40.686371,-73.99383324,1200
3300,Prospect Park West & 8 St,40.66514681533792,-73.97637605667114,1276
3301,Columbus Ave & W 95 St,40.7919557,-73.968087,3811
3302,Columbus Ave & W 103 St,40.7969347,-73.9643412291,448
3303,Butler St & Court St,40.6849894,-73.99440329,913
3304,6 Ave & 9 St,40.668127,-73.98377641,1036
3305,E 91 St & 2 Ave,40.78112229934166,-73.94965589046478,3190
3306,10 St & 7 Ave,40.6662078,-73.98199886,1040
3307,West End Ave & W 94 St,40.7941654,-73.974124,2686
3308,Kane St & Clinton St,40.6861758,-73.99645295,888
3309,E 97 St & 3 Ave,40.7859201,-73.94860294,798
3310,14 St & 7 Ave,40.663779,-73.98396846,1177
3311,Columbia St & Kane St,40.68763155,-74.0016256,992
3312,1 Ave & E 94 St,40.7817212,-73.94594,2573
3313,6 Ave & 12 St,40.6663181,-73.9854617,584
3314,W 95 St & Broadway,40.7937704,-73.971888,4249
3315,Henry St & Degraw St,40.6847514,-73.99917254,1343
3316,W 104 St & Amsterdam Ave,40.7989937,-73.9662173778,1461
3317,10 St & 5 Ave,40.6686273,-73.98700053,616
3319,14 St & 5 Ave,40.666287,-73.98895053,813
3320,Central Park West & W 100 St,40.793393,-73.9635556,2181
3321,Clinton St & Union St,40.6831164,-73.99785267,1123
3322,12 St & 4 Ave,40.668603,-73.9904394,561
3323,W 106 St & Central Park West,40.7981856,-73.9605909006,3964
3324,3 Ave & 14 St,40.6685455,-73.99333264,290
3325,E 95 St & 3 Ave,40.7849032,-73.950503,1986
3326,Clinton St & Centre St,40.67434,-74.00194698,99
3327,3 Ave & E 100 St,40.7877214,-73.94728331,530
3328,W 100 St & Manhattan Ave,40.795,-73.9645,466
3329,Degraw St & Smith St,40.6829151,-73.99318208,982
3330,Henry St & Bay St,40.6725058,-74.00494695,254
3331,Riverside Dr & W 104 St,40.8013434,-73.9711457439,2266
3332,Degraw St & Hoyt St,40.681990442707026,-73.99079024791718,4
3333,Columbia St & Lorraine St,40.6747055,-74.0075572,163
3335,Union St & 4 Ave,40.6772744,-73.98282002,1342
3336,E 97 St & Madison Ave,40.787801,-73.953559,2951
3338,2 Ave & E 99 St,40.7862586,-73.94552579,129
3339,Berkeley Pl & 6 Ave,40.6765304,-73.97846879,888
3340,Wolcott St & Dwight St,40.6753274,-74.0100698,213
3341,Central Park West & W 102 St,40.795346,-73.96186,2760
3342,Pioneer St & Richards St,40.6777748,-74.0094613,123
3343,W 107 St & Columbus Ave,40.7997568,-73.9621128676,1315
3344,Pioneer St & Van Brunt St,40.679043,-74.011169,355
3345,Madison Ave & E 99 St,40.78948541553215,-73.95242929458618,1477
3347,Van Brunt St & Wolcott St,40.6773429,-74.01275056,696
3348,Coffey St & Conover St,40.677236,-74.015665,151
3349,Grand Army Plaza & Plaza St West,40.6729679,-73.97087984,1170
3350,W 100 St & Broadway,40.7973721,-73.97041192,3030
3351,E 102 St & 1 Ave,40.7869946,-73.94164802,1590
3353,Reed St & Van Brunt St,40.6747844,-74.01612847,1000
3354,3 St & Prospect Park West,40.668132,-73.97363831,1088
3355,E 66 St & Madison Ave,40.76800889305947,-73.96845281124115,681
3356,Amsterdam Ave & W 66 St,40.7746671,-73.98470567,466
3357,W 106 St & Amsterdam Ave,40.8008363,-73.9664492472,2288
3358,Garfield Pl & 8 Ave,40.6711978,-73.97484126,236
3359,E 68 St & Madison Ave,40.7691572,-73.96703464,693
3360,Amsterdam Ave & W 79 St,40.7829391,-73.9786517,1000
3361,Carroll St & 6 Ave,40.6740886,-73.9787282,1381
3362,Madison Ave & E 82 St,40.7781314,-73.96069399,33
3363,E 102 St & Park Ave,40.7904828,-73.95033068,630
3364,Carroll St & 5 Ave,40.6751622,-73.9814832,1113
3365,3 St & 7 Ave,40.6703837,-73.97839676,927
3366,West End Ave & W 107 St,40.8021174,-73.9681805305,1428
3367,5 Ave & E 103 St,40.7922553,-73.95249933,2572
3368,5 Ave & 3 St,40.6728155,-73.98352355,2054
3370,78 St & 2 Ave,40.7727966,-73.95577801,659
3372,E 74 St & 1 Ave,40.7689738,-73.95482273,508
3373,3 St & 3 Ave,40.6750705,-73.98775226,1385
3374,Central Park North & Adam Clayton Powell Blvd,40.799484,-73.955613,4740
3375,3 Ave & E 72 St,40.7699426,-73.96060712,30
3376,E 65 St & 2 Ave,40.76471851944339,-73.96222069859505,8
3377,Carroll St & Bond St,40.6786115,-73.99037292,692
3378,E 76 St & Park Ave,40.773763,-73.96222088,1055
3379,E 103 St & Lexington Ave,40.7903051,-73.94755757,978
3381,3 St & Hoyt St,40.6777287,-73.99364123,534
3382,Carroll St & Smith St,40.680611,-73.99475825,1381
3383,Cathedral Pkwy & Broadway,40.804213,-73.96699104,3795
3384,Smith St & 3 St,40.6787242,-73.99599099,583
3386,1 Pl & Clinton St,40.6809591,-73.99905709,568
3387,E 106 St & Madison Ave,40.7934337,-73.94945003,657
3388,President St & Henry St,40.6828003,-73.99990419,693
3389,Carroll St & Columbia St,40.6830456,-74.00348559,894
3390,E 109 St & 3 Ave,40.79329668,-73.9432083,1124
3391,E 106 St & 1 Ave,40.7892529,-73.93956237,771
3392,Commerce St & Van Brunt St,40.6812117,-74.00860912,593
3393,Richards St & Delavan St,40.6794327,-74.00785041,239
3394,Columbia St & W 9 St,40.6769993,-74.00647134,63
3395,Henry St & W 9 St,40.6763744,-74.00324957,163
3396,Clinton St & 4 Place,40.6783563,-74.00014502,1018
3397,Court St & Nelson St,40.6763947,-73.99869893,750
3398,Smith St & 9 St,40.6746957,-73.99785768,778
3399,7 St & 3 Ave,40.67260298150126,-73.98983001708984,87
3400,E 110 St & Madison Ave,40.7961535,-73.94782145,2093
3401,2 Ave & 9 St,40.6724811,-73.99331394,445
3402,Court St & State St,40.6902375,-73.99203074,1667
3403,4 Ave & 9 St,40.6705135,-73.98876585,823
3404,7 St & 5 Ave,40.6704922,-73.98541675,851
3405,5 St & 6 Ave,40.6704836,-73.98208968,619
3408,Congress St & Clinton St,40.6881529,-73.99520919,1639
3409,Bergen St & Smith St,40.6867443,-73.99063168,756
3410,Dean St & Hoyt St,40.6864442,-73.98759104,846
3411,Bond St & Bergen St,40.6849668,-73.98620772,1074
3412,Pacific St & Nevins St,40.6853761,-73.98302136,339
3413,Wyckoff St & 3 Ave,40.6827549,-73.98258555,635
3414,Bergen St & Flatbush Ave,40.680944723477296,-73.97567331790923,289
3415,Prospect Pl & 6 Ave,40.6793307,-73.97519523,1264
3416,7 Ave & Park Pl,40.6776147,-73.97324283,2587
3417,Baltic St & 5 Ave,40.6795766,-73.97854971,1279
3418,Plaza St West & Flatbush Ave,40.6750207,-73.97111473,1645
3419,Douglass St & 4 Ave,40.6792788,-73.98154004,1076
3420,Douglass St & 3 Ave,40.6802133,-73.98432695,820
3421,Hoyt St & Warren St,40.6843549,-73.98901629,419
3422,Columbia St & Degraw St,40.6859296,-74.00242364,1157
3423,West Drive & Prospect Park West,40.6610633719006,-73.97945255041122,1502
3424,E 106 St & Lexington Ave,40.791976,-73.945993,190
3425,2 Ave  & E 104 St,40.7892105,-73.94370784,925
3427,Lafayette St & Jersey St,40.72430527250332,-73.99600982666016,5884
3428,8 Ave & W 16 St,40.740983,-74.001702,3996
3429,Hanson Pl & Ashland Pl,40.68506807308177,-73.97790759801863,2713
3430,Richardson St & N Henry St,40.71907891179564,-73.94223690032959,506
3431,E 35 St & 3 Ave,40.746524,-73.977885,1098
3434,W 88 St & West End Ave,40.79025417330419,-73.97718340158461,1
3435,Grand St & Elizabeth St,40.718822,-73.99596,24
3436,Greenwich St & Hubert St,40.721319,-74.010065,22
